{
  "venues": [
    {
      "id": 1,
      "location": { "postalCode": "87-405", "name": "East Lillaborough" },
      "pricePerNightInEUR": "673.00",
      "rating": 2.6,
      "capacity": 10,
      "name": "Yeah!",
      "albumId": 100
    },
    {
      "id": 2,
      "location": { "postalCode": "39-529", "name": "East Wilfredstad" },
      "pricePerNightInEUR": "836.00",
      "rating": 1.4,
      "capacity": 1,
      "name": "Thank You (Falettinme be Mice Elf Again)",
      "albumId": 99
    },
    {
      "id": 3,
      "location": { "postalCode": "30-747", "name": "Bahringerchester" },
      "pricePerNightInEUR": "835.00",
      "rating": 4.1,
      "capacity": 4,
      "name": "Strange Fruit",
      "albumId": 98
    },
    {
      "id": 4,
      "location": { "postalCode": "69-853", "name": "North Kenyatta" },
      "pricePerNightInEUR": "487.00",
      "rating": 2.4,
      "capacity": 5,
      "name": "You Can't Hurry Love",
      "albumId": 97
    },
    {
      "id": 5,
      "location": { "postalCode": "49-756", "name": "Lake Charles" },
      "pricePerNightInEUR": "528.00",
      "rating": 3.5,
      "capacity": 11,
      "name": "Hold On",
      "albumId": 96
    },
    {
      "id": 6,
      "location": { "postalCode": "93-803", "name": "Port Garfieldborough" },
      "pricePerNightInEUR": "343.00",
      "rating": 4.8,
      "capacity": 1,
      "name": "The Power of Love",
      "albumId": 95
    },
    {
      "id": 7,
      "location": { "postalCode": "95-957", "name": "West Nickolasworth" },
      "pricePerNightInEUR": "943.00",
      "rating": 1.6,
      "capacity": 7,
      "name": "Baby One More Time",
      "albumId": 94
    },
    {
      "id": 8,
      "location": { "postalCode": "38-175", "name": "Fort Lauderdale" },
      "pricePerNightInEUR": "583.00",
      "rating": 1.1,
      "capacity": 3,
      "name": "One of Us",
      "albumId": 93
    },
    {
      "id": 9,
      "location": { "postalCode": "53-725", "name": "Schuppeshire" },
      "pricePerNightInEUR": "268.00",
      "rating": 4.5,
      "capacity": 3,
      "name": "With Or Without You",
      "albumId": 92
    },
    {
      "id": 10,
      "location": { "postalCode": "64-198", "name": "South Kailynbury" },
      "pricePerNightInEUR": "356.00",
      "rating": 4.9,
      "capacity": 8,
      "name": "Physical",
      "albumId": 91
    },
    {
      "id": 11,
      "location": { "postalCode": "49-491", "name": "Fort Teresa" },
      "pricePerNightInEUR": "757.00",
      "rating": 2.6,
      "capacity": 3,
      "name": "Shout",
      "albumId": 90
    },
    {
      "id": 12,
      "location": { "postalCode": "00-808", "name": "Downey" },
      "pricePerNightInEUR": "286.00",
      "rating": 4,
      "capacity": 5,
      "name": "TSOP (The Sound of Philadelphia)",
      "albumId": 89
    },
    {
      "id": 13,
      "location": { "postalCode": "75-989", "name": "Tamarac" },
      "pricePerNightInEUR": "654.00",
      "rating": 4.1,
      "capacity": 5,
      "name": "The Boy is Mine",
      "albumId": 88
    },
    {
      "id": 14,
      "location": { "postalCode": "97-614", "name": "Port Janessa" },
      "pricePerNightInEUR": "196.00",
      "rating": 2.8,
      "capacity": 7,
      "name": "Like a Virgin",
      "albumId": 87
    },
    {
      "id": 15,
      "location": { "postalCode": "07-340", "name": "South Harmonyfield" },
      "pricePerNightInEUR": "917.00",
      "rating": 4.1,
      "capacity": 1,
      "name": "Hurt So Good",
      "albumId": 86
    },
    {
      "id": 16,
      "location": { "postalCode": "83-096", "name": "Imogenehaven" },
      "pricePerNightInEUR": "761.00",
      "rating": 3.5,
      "capacity": 8,
      "name": "A Hard Day's Night",
      "albumId": 85
    },
    {
      "id": 17,
      "location": { "postalCode": "66-289", "name": "East Sherman" },
      "pricePerNightInEUR": "747.00",
      "rating": 4.6,
      "capacity": 2,
      "name": "Maggie May",
      "albumId": 84
    },
    {
      "id": 18,
      "location": { "postalCode": "48-288", "name": "Ileneport" },
      "pricePerNightInEUR": "577.00",
      "rating": 1,
      "capacity": 7,
      "name": "Roses Are Red",
      "albumId": 83
    },
    {
      "id": 19,
      "location": { "postalCode": "36-791", "name": "Kenosha" },
      "pricePerNightInEUR": "71.00",
      "rating": 1.1,
      "capacity": 8,
      "name": "Jump",
      "albumId": 82
    },
    {
      "id": 20,
      "location": { "postalCode": "69-854", "name": "Karlichester" },
      "pricePerNightInEUR": "459.00",
      "rating": 2.5,
      "capacity": 1,
      "name": "Disco Duck",
      "albumId": 81
    },
    {
      "id": 21,
      "location": { "postalCode": "58-144", "name": "East Danyka" },
      "pricePerNightInEUR": "734.00",
      "rating": 1.1,
      "capacity": 2,
      "name": "I Will Always Love You",
      "albumId": 80
    },
    {
      "id": 22,
      "location": { "postalCode": "43-772", "name": "Jacksonville" },
      "pricePerNightInEUR": "64.00",
      "rating": 2.8,
      "capacity": 7,
      "name": "School's Out",
      "albumId": 79
    },
    {
      "id": 23,
      "location": { "postalCode": "83-336", "name": "Lake Jammie" },
      "pricePerNightInEUR": "502.00",
      "rating": 1.3,
      "capacity": 11,
      "name": "Pick Up the Pieces",
      "albumId": 78
    },
    {
      "id": 24,
      "location": { "postalCode": "14-543", "name": "South Reanna" },
      "pricePerNightInEUR": "227.00",
      "rating": 1.2,
      "capacity": 12,
      "name": "Judy in Disguise (With Glasses)",
      "albumId": 77
    },
    {
      "id": 25,
      "location": { "postalCode": "70-049", "name": "New Jake" },
      "pricePerNightInEUR": "785.00",
      "rating": 3.5,
      "capacity": 3,
      "name": "Get Down Tonight",
      "albumId": 76
    },
    {
      "id": 26,
      "location": { "postalCode": "87-135", "name": "East Grahamside" },
      "pricePerNightInEUR": "864.00",
      "rating": 4.1,
      "capacity": 7,
      "name": "Travellin' Man",
      "albumId": 75
    },
    {
      "id": 27,
      "location": { "postalCode": "19-446", "name": "Pomona" },
      "pricePerNightInEUR": "993.00",
      "rating": 2.3,
      "capacity": 9,
      "name": "Love Train",
      "albumId": 74
    },
    {
      "id": 28,
      "location": { "postalCode": "16-829", "name": "South Sallie" },
      "pricePerNightInEUR": "594.00",
      "rating": 3,
      "capacity": 6,
      "name": "April Showers",
      "albumId": 73
    },
    {
      "id": 29,
      "location": { "postalCode": "15-776", "name": "Lake Ewaldburgh" },
      "pricePerNightInEUR": "913.00",
      "rating": 1.3,
      "capacity": 1,
      "name": "Revolution",
      "albumId": 72
    },
    {
      "id": 30,
      "location": { "postalCode": "95-358", "name": "Augustineland" },
      "pricePerNightInEUR": "105.00",
      "rating": 3.1,
      "capacity": 6,
      "name": "Crimson & Clover",
      "albumId": 71
    },
    {
      "id": 31,
      "location": { "postalCode": "29-769", "name": "Alberthafield" },
      "pricePerNightInEUR": "152.00",
      "rating": 4.8,
      "capacity": 3,
      "name": "You Light Up My Life",
      "albumId": 70
    },
    {
      "id": 32,
      "location": { "postalCode": "90-554", "name": "Marinachester" },
      "pricePerNightInEUR": "777.00",
      "rating": 4.3,
      "capacity": 3,
      "name": "Till I Waltz Again With You",
      "albumId": 69
    },
    {
      "id": 33,
      "location": { "postalCode": "57-712", "name": "Klingfurt" },
      "pricePerNightInEUR": "900.00",
      "rating": 4.2,
      "capacity": 5,
      "name": "You Were Meant for Me",
      "albumId": 68
    },
    {
      "id": 34,
      "location": { "postalCode": "40-640", "name": "East Tyrese" },
      "pricePerNightInEUR": "899.00",
      "rating": 2.5,
      "capacity": 7,
      "name": "Pistol Packin' Mama",
      "albumId": 67
    },
    {
      "id": 35,
      "location": { "postalCode": "54-888", "name": "Fort Samirbury" },
      "pricePerNightInEUR": "129.00",
      "rating": 1.3,
      "capacity": 2,
      "name": "Mony Mony",
      "albumId": 66
    },
    {
      "id": 36,
      "location": { "postalCode": "32-610", "name": "New Katelyn" },
      "pricePerNightInEUR": "700.00",
      "rating": 1.3,
      "capacity": 1,
      "name": "Burn",
      "albumId": 65
    },
    {
      "id": 37,
      "location": { "postalCode": "54-923", "name": "Kaiaboro" },
      "pricePerNightInEUR": "486.00",
      "rating": 2.9,
      "capacity": 9,
      "name": "Tossing & Turning",
      "albumId": 64
    },
    {
      "id": 38,
      "location": { "postalCode": "54-293", "name": "Port Lorenza" },
      "pricePerNightInEUR": "948.00",
      "rating": 2.9,
      "capacity": 11,
      "name": "Stay (I Missed You)",
      "albumId": 63
    },
    {
      "id": 39,
      "location": { "postalCode": "16-680", "name": "Hartford" },
      "pricePerNightInEUR": "672.00",
      "rating": 3,
      "capacity": 8,
      "name": "Oh My Papa (O Mein Papa)",
      "albumId": 62
    },
    {
      "id": 40,
      "location": { "postalCode": "91-556", "name": "Stromanfurt" },
      "pricePerNightInEUR": "556.00",
      "rating": 3.5,
      "capacity": 8,
      "name": "Crazy Little Thing Called Love",
      "albumId": 61
    },
    {
      "id": 41,
      "location": { "postalCode": "14-465", "name": "Port Eldaton" },
      "pricePerNightInEUR": "439.00",
      "rating": 4.6,
      "capacity": 10,
      "name": "Pon De Replay",
      "albumId": 60
    },
    {
      "id": 42,
      "location": { "postalCode": "89-365", "name": "Harrisfort" },
      "pricePerNightInEUR": "765.00",
      "rating": 4.5,
      "capacity": 7,
      "name": "Love Me Do",
      "albumId": 59
    },
    {
      "id": 43,
      "location": { "postalCode": "91-497", "name": "Round Rock" },
      "pricePerNightInEUR": "73.00",
      "rating": 4.9,
      "capacity": 3,
      "name": "Stay (I Missed You)",
      "albumId": 58
    },
    {
      "id": 44,
      "location": { "postalCode": "31-553", "name": "Asabury" },
      "pricePerNightInEUR": "363.00",
      "rating": 1.6,
      "capacity": 5,
      "name": "Faith",
      "albumId": 57
    },
    {
      "id": 45,
      "location": { "postalCode": "30-879", "name": "South Jo" },
      "pricePerNightInEUR": "427.00",
      "rating": 2.5,
      "capacity": 3,
      "name": "Personality",
      "albumId": 56
    },
    {
      "id": 46,
      "location": { "postalCode": "74-893", "name": "Dundalk" },
      "pricePerNightInEUR": "691.00",
      "rating": 1.7,
      "capacity": 10,
      "name": "This Ole House",
      "albumId": 55
    },
    {
      "id": 47,
      "location": { "postalCode": "42-080", "name": "Koelpinview" },
      "pricePerNightInEUR": "61.00",
      "rating": 1.7,
      "capacity": 5,
      "name": "Afternoon Delight",
      "albumId": 54
    },
    {
      "id": 48,
      "location": { "postalCode": "72-684", "name": "Beahancester" },
      "pricePerNightInEUR": "584.00",
      "rating": 4.6,
      "capacity": 11,
      "name": "Frankenstein",
      "albumId": 53
    },
    {
      "id": 49,
      "location": { "postalCode": "12-098", "name": "Adrielborough" },
      "pricePerNightInEUR": "620.00",
      "rating": 3.3,
      "capacity": 8,
      "name": "(Your Love Keeps Lifting Me) Higher & Higher",
      "albumId": 52
    },
    {
      "id": 50,
      "location": { "postalCode": "88-742", "name": "Haskellhaven" },
      "pricePerNightInEUR": "969.00",
      "rating": 3,
      "capacity": 2,
      "name": "We Are Family",
      "albumId": 51
    },
    {
      "id": 51,
      "location": { "postalCode": "88-819", "name": "Fond du Lac" },
      "pricePerNightInEUR": "856.00",
      "rating": 4,
      "capacity": 2,
      "name": "You've Got a Friend",
      "albumId": 50
    },
    {
      "id": 52,
      "location": { "postalCode": "21-776", "name": "Timmycester" },
      "pricePerNightInEUR": "278.00",
      "rating": 2.8,
      "capacity": 3,
      "name": "Stronger",
      "albumId": 49
    },
    {
      "id": 53,
      "location": { "postalCode": "34-005", "name": "O'Konside" },
      "pricePerNightInEUR": "864.00",
      "rating": 1.9,
      "capacity": 10,
      "name": "Hound Dog",
      "albumId": 48
    },
    {
      "id": 54,
      "location": { "postalCode": "01-843", "name": "Palm Beach Gardens" },
      "pricePerNightInEUR": "646.00",
      "rating": 4.8,
      "capacity": 9,
      "name": "Kiss On My List",
      "albumId": 47
    },
    {
      "id": 55,
      "location": { "postalCode": "49-910", "name": "Hilllbury" },
      "pricePerNightInEUR": "92.00",
      "rating": 4.1,
      "capacity": 8,
      "name": "Party Rock Anthem",
      "albumId": 46
    },
    {
      "id": 56,
      "location": { "postalCode": "64-312", "name": "Port Teresa" },
      "pricePerNightInEUR": "329.00",
      "rating": 1.7,
      "capacity": 11,
      "name": "I Got You Babe",
      "albumId": 45
    },
    {
      "id": 57,
      "location": { "postalCode": "50-485", "name": "Monroe" },
      "pricePerNightInEUR": "868.00",
      "rating": 3.5,
      "capacity": 8,
      "name": "Thriller",
      "albumId": 44
    },
    {
      "id": 58,
      "location": { "postalCode": "14-746", "name": "Larsoncester" },
      "pricePerNightInEUR": "63.00",
      "rating": 2.9,
      "capacity": 12,
      "name": "Lonely Boy",
      "albumId": 43
    },
    {
      "id": 59,
      "location": { "postalCode": "73-131", "name": "Lake Ardenside" },
      "pricePerNightInEUR": "834.00",
      "rating": 3.8,
      "capacity": 6,
      "name": "On the Atchison",
      "albumId": 42
    },
    {
      "id": 60,
      "location": { "postalCode": "46-443", "name": "Tremayneport" },
      "pricePerNightInEUR": "847.00",
      "rating": 1.3,
      "capacity": 4,
      "name": "Tammy",
      "albumId": 41
    },
    {
      "id": 61,
      "location": { "postalCode": "03-278", "name": "Stoltenbergfield" },
      "pricePerNightInEUR": "102.00",
      "rating": 1,
      "capacity": 11,
      "name": "I've Heard That Song Before",
      "albumId": 40
    },
    {
      "id": 62,
      "location": { "postalCode": "41-925", "name": "Ondrickaworth" },
      "pricePerNightInEUR": "851.00",
      "rating": 4.5,
      "capacity": 11,
      "name": "Ole Buttermilk Sky",
      "albumId": 39
    },
    {
      "id": 63,
      "location": { "postalCode": "53-832", "name": "Eugeniashire" },
      "pricePerNightInEUR": "448.00",
      "rating": 4.4,
      "capacity": 5,
      "name": "Freak Me",
      "albumId": 38
    },
    {
      "id": 64,
      "location": { "postalCode": "70-698", "name": "Irving" },
      "pricePerNightInEUR": "289.00",
      "rating": 1.1,
      "capacity": 8,
      "name": "Chain of Fools",
      "albumId": 37
    },
    {
      "id": 65,
      "location": { "postalCode": "21-006", "name": "Fort Durward" },
      "pricePerNightInEUR": "736.00",
      "rating": 4.4,
      "capacity": 6,
      "name": "I Got You Babe",
      "albumId": 36
    },
    {
      "id": 66,
      "location": { "postalCode": "33-047", "name": "Port Josiah" },
      "pricePerNightInEUR": "730.00",
      "rating": 1.6,
      "capacity": 5,
      "name": "Dreams",
      "albumId": 35
    },
    {
      "id": 67,
      "location": { "postalCode": "12-368", "name": "Boscotown" },
      "pricePerNightInEUR": "494.00",
      "rating": 1.8,
      "capacity": 1,
      "name": "Check On It",
      "albumId": 34
    },
    {
      "id": 68,
      "location": { "postalCode": "27-329", "name": "Mosciskichester" },
      "pricePerNightInEUR": "357.00",
      "rating": 5,
      "capacity": 7,
      "name": "Buttons & Bows",
      "albumId": 33
    },
    {
      "id": 69,
      "location": { "postalCode": "13-982", "name": "Toledo" },
      "pricePerNightInEUR": "573.00",
      "rating": 2.4,
      "capacity": 4,
      "name": "You're Still the One",
      "albumId": 32
    },
    {
      "id": 70,
      "location": { "postalCode": "60-492", "name": "Fort Reymundoburgh" },
      "pricePerNightInEUR": "767.00",
      "rating": 3,
      "capacity": 6,
      "name": "You Make Me Feel Like Dancing",
      "albumId": 31
    },
    {
      "id": 71,
      "location": { "postalCode": "39-062", "name": "New Williamport" },
      "pricePerNightInEUR": "26.00",
      "rating": 3.5,
      "capacity": 8,
      "name": "Fame",
      "albumId": 30
    },
    {
      "id": 72,
      "location": { "postalCode": "76-629", "name": "West Vernfield" },
      "pricePerNightInEUR": "417.00",
      "rating": 4.6,
      "capacity": 11,
      "name": "I Feel Love",
      "albumId": 29
    },
    {
      "id": 73,
      "location": { "postalCode": "92-780", "name": "Noelstead" },
      "pricePerNightInEUR": "892.00",
      "rating": 4.9,
      "capacity": 6,
      "name": "Waterfalls",
      "albumId": 28
    },
    {
      "id": 74,
      "location": { "postalCode": "40-384", "name": "Fort Doyleberg" },
      "pricePerNightInEUR": "285.00",
      "rating": 3.7,
      "capacity": 8,
      "name": "Fire & Rain",
      "albumId": 27
    },
    {
      "id": 75,
      "location": { "postalCode": "22-342", "name": "O'Keefeland" },
      "pricePerNightInEUR": "401.00",
      "rating": 1.2,
      "capacity": 6,
      "name": "I'm a Believer",
      "albumId": 26
    },
    {
      "id": 76,
      "location": { "postalCode": "51-393", "name": "Conroe" },
      "pricePerNightInEUR": "945.00",
      "rating": 3,
      "capacity": 11,
      "name": "Green River",
      "albumId": 25
    },
    {
      "id": 77,
      "location": { "postalCode": "23-633", "name": "Aufderharfurt" },
      "pricePerNightInEUR": "334.00",
      "rating": 3.6,
      "capacity": 2,
      "name": "The Morning After",
      "albumId": 24
    },
    {
      "id": 78,
      "location": { "postalCode": "69-676", "name": "East Monserrate" },
      "pricePerNightInEUR": "284.00",
      "rating": 3,
      "capacity": 9,
      "name": "The Joker",
      "albumId": 23
    },
    {
      "id": 79,
      "location": { "postalCode": "22-328", "name": "Oshkosh" },
      "pricePerNightInEUR": "913.00",
      "rating": 2.2,
      "capacity": 3,
      "name": "I Heard it Through the Grapevine",
      "albumId": 22
    },
    {
      "id": 80,
      "location": { "postalCode": "93-317", "name": "Salmahaven" },
      "pricePerNightInEUR": "623.00",
      "rating": 4,
      "capacity": 6,
      "name": "Manana (Is Soon Enough For Me)",
      "albumId": 21
    },
    {
      "id": 81,
      "location": { "postalCode": "67-760", "name": "St. Charles" },
      "pricePerNightInEUR": "994.00",
      "rating": 1.4,
      "capacity": 1,
      "name": "My Love",
      "albumId": 20
    },
    {
      "id": 82,
      "location": { "postalCode": "44-192", "name": "North Kayley" },
      "pricePerNightInEUR": "630.00",
      "rating": 3.3,
      "capacity": 12,
      "name": "Tutti Frutti",
      "albumId": 19
    },
    {
      "id": 83,
      "location": { "postalCode": "17-846", "name": "Cronashire" },
      "pricePerNightInEUR": "324.00",
      "rating": 2.8,
      "capacity": 9,
      "name": "Change the World",
      "albumId": 18
    },
    {
      "id": 84,
      "location": { "postalCode": "94-170", "name": "South Marilie" },
      "pricePerNightInEUR": "970.00",
      "rating": 5,
      "capacity": 12,
      "name": "Like a Rolling Stone",
      "albumId": 17
    },
    {
      "id": 85,
      "location": { "postalCode": "60-852", "name": "Carson" },
      "pricePerNightInEUR": "927.00",
      "rating": 5,
      "capacity": 3,
      "name": "(Let Me Be Your) Teddy Bear",
      "albumId": 16
    },
    {
      "id": 86,
      "location": { "postalCode": "20-897", "name": "Adelefield" },
      "pricePerNightInEUR": "280.00",
      "rating": 2.5,
      "capacity": 12,
      "name": "The Long & Winding Road",
      "albumId": 15
    },
    {
      "id": 87,
      "location": { "postalCode": "76-841", "name": "Pleasanton" },
      "pricePerNightInEUR": "925.00",
      "rating": 4.5,
      "capacity": 8,
      "name": "The Sign",
      "albumId": 14
    },
    {
      "id": 88,
      "location": { "postalCode": "33-867", "name": "Kaceyburgh" },
      "pricePerNightInEUR": "464.00",
      "rating": 1.6,
      "capacity": 1,
      "name": "Wipe Out",
      "albumId": 13
    },
    {
      "id": 89,
      "location": { "postalCode": "09-738", "name": "Port Stanfordshire" },
      "pricePerNightInEUR": "432.00",
      "rating": 3.5,
      "capacity": 10,
      "name": "Big Girls Don't Cry",
      "albumId": 12
    },
    {
      "id": 90,
      "location": { "postalCode": "98-358", "name": "Pablofield" },
      "pricePerNightInEUR": "54.00",
      "rating": 3.1,
      "capacity": 11,
      "name": "Crazy in Love",
      "albumId": 11
    },
    {
      "id": 91,
      "location": { "postalCode": "91-929", "name": "Kshlerinville" },
      "pricePerNightInEUR": "577.00",
      "rating": 5,
      "capacity": 3,
      "name": "Fame",
      "albumId": 10
    },
    {
      "id": 92,
      "location": { "postalCode": "09-363", "name": "Danielatown" },
      "pricePerNightInEUR": "839.00",
      "rating": 1.1,
      "capacity": 2,
      "name": "50 Ways to Leave Your Lover",
      "albumId": 9
    },
    {
      "id": 93,
      "location": { "postalCode": "47-365", "name": "Cordellfield" },
      "pricePerNightInEUR": "879.00",
      "rating": 2.5,
      "capacity": 4,
      "name": "The Last Dance",
      "albumId": 8
    },
    {
      "id": 94,
      "location": { "postalCode": "60-470", "name": "Lake Thomas" },
      "pricePerNightInEUR": "95.00",
      "rating": 1,
      "capacity": 1,
      "name": "(I Can't Get No) Satisfaction",
      "albumId": 7
    },
    {
      "id": 95,
      "location": { "postalCode": "75-825", "name": "Rohancester" },
      "pricePerNightInEUR": "143.00",
      "rating": 2,
      "capacity": 3,
      "name": "Stranger On the Shore",
      "albumId": 6
    },
    {
      "id": 96,
      "location": { "postalCode": "32-932", "name": "Marionshire" },
      "pricePerNightInEUR": "786.00",
      "rating": 3.8,
      "capacity": 12,
      "name": "Nature Boy",
      "albumId": 5
    },
    {
      "id": 97,
      "location": { "postalCode": "48-899", "name": "White Plains" },
      "pricePerNightInEUR": "355.00",
      "rating": 1.1,
      "capacity": 1,
      "name": "Two Hearts",
      "albumId": 4
    },
    {
      "id": 98,
      "location": { "postalCode": "84-224", "name": "Rolfsonburgh" },
      "pricePerNightInEUR": "789.00",
      "rating": 1.9,
      "capacity": 4,
      "name": "Rum & Coca-Cola",
      "albumId": 3
    },
    {
      "id": 99,
      "location": { "postalCode": "11-810", "name": "Elizabeth" },
      "pricePerNightInEUR": "617.00",
      "rating": 2.7,
      "capacity": 1,
      "name": "Iris",
      "albumId": 2
    },
    {
      "id": 100,
      "location": { "postalCode": "74-143", "name": "League City" },
      "pricePerNightInEUR": "500.00",
      "rating": 1.1,
      "capacity": 11,
      "name": "Locked Out Of Heaven",
      "albumId": 1
    }
  ],
  "venuesDetails": [
    {
      "id": 7731,
      "venueId": 1,
      "location": { "postalCode": "87-405", "name": "East Lillaborough" },
      "pricePerNightInEUR": "673.00",
      "rating": 2.6,
      "numberOfReviews": 3367,
      "capacity": 10,
      "name": "Yeah!",
      "albumId": 100,
      "description": "Calco uterque theologus cui verecundia cruciamentum compello accusamus vulgivagus speciosus. Id spectaculum absorbeo somnus tunc vorax condico veritas. Cognomen vallum adduco creo. Vereor vilitas virga omnis.",
      "features": {
        "generalAmenities": [
          "pool",
          "fitness center",
          "karaoke",
          "bar",
          "fireplace"
        ],
        "roomAmenities": ["kitchen facilities"],
        "neighbourhoods": [
          "amusement park",
          "lake",
          "national park",
          "historical monument",
          "forest",
          "cinema"
        ],
        "handicapAccesibility": [
          "blind friendly",
          "deaf friendly",
          "wheelchair friendly",
          "short-grown friendly"
        ]
      },
      "sleepingDetails": { "maxCapacity": 10, "amountOfBeds": 8 },
      "checkInHour": "12pm",
      "checkOutHour": "10am",
      "distanceFromCityCenterInKM": 25,
      "contactDetails": {
        "phone": "570.427.8495",
        "email": "Yeah_EastLillaborough@yahoo.com"
      }
    },
    {
      "id": 18405,
      "venueId": 2,
      "location": { "postalCode": "39-529", "name": "East Wilfredstad" },
      "pricePerNightInEUR": "836.00",
      "rating": 1.4,
      "numberOfReviews": 5565,
      "capacity": 1,
      "name": "Thank You (Falettinme be Mice Elf Again)",
      "albumId": 99,
      "description": "Centum modi super desidero casso. Suggero tam valeo celebrer caput deficio cruciamentum verumtamen contabesco. Amissio conicio vere cur subseco curto. Sophismata demitto cubitum desolo compono adduco consequuntur. Adficio turpis curvo id dedico hic vulgo ars.",
      "features": {
        "generalAmenities": [
          "bar",
          "parking",
          "pet friendly",
          "indoor music",
          "pool",
          "playground",
          "library",
          "fireplace",
          "garden",
          "karaoke",
          "speakers",
          "WiFi",
          "jacuzzi",
          "fitness center",
          "24h reception",
          "restaurant"
        ],
        "roomAmenities": ["bathroom facilities", "safe", "kitchen facilities"],
        "neighbourhoods": ["church", "lake", "forest"],
        "handicapAccesibility": ["deaf friendly", "wheelchair friendly"]
      },
      "sleepingDetails": { "maxCapacity": 1, "amountOfBeds": 1 },
      "checkInHour": "12pm",
      "checkOutHour": "10am",
      "distanceFromCityCenterInKM": 21,
      "contactDetails": {
        "phone": "(784) 995-4157 x9574",
        "email": "ThankYouFalettinmebeMiceElfAgain_EastWilfredstad99@hotmail.com"
      }
    },
    {
      "id": 1135,
      "venueId": 3,
      "location": { "postalCode": "30-747", "name": "Bahringerchester" },
      "pricePerNightInEUR": "835.00",
      "rating": 4.1,
      "numberOfReviews": 9203,
      "capacity": 4,
      "name": "Strange Fruit",
      "albumId": 98,
      "description": "Arcus atque doloremque coaegresco molestiae statua vester tempore rerum usus. Crur argumentum teneo summopere cervus tabgo universe attollo admoneo ascit. Quae perferendis vetus tripudio dolorum coaegresco.",
      "features": {
        "generalAmenities": ["speakers", "outdoor music", "restaurant"],
        "roomAmenities": ["bathroom facilities", "TV"],
        "neighbourhoods": [
          "theatre",
          "mall",
          "sea",
          "zoo",
          "museum",
          "old town",
          "national park",
          "church",
          "mountains",
          "restaurant",
          "cinema",
          "amusement park",
          "park"
        ],
        "handicapAccesibility": ["blind friendly", "short-grown friendly"]
      },
      "sleepingDetails": { "maxCapacity": 4, "amountOfBeds": 2 },
      "checkInHour": "12pm",
      "checkOutHour": "10am",
      "distanceFromCityCenterInKM": 14,
      "contactDetails": {
        "phone": "676-342-8853 x2352",
        "email": "StrangeFruit_Bahringerchester65@gmail.com"
      }
    },
    {
      "id": 12779,
      "venueId": 4,
      "location": { "postalCode": "69-853", "name": "North Kenyatta" },
      "pricePerNightInEUR": "487.00",
      "rating": 2.4,
      "numberOfReviews": 3067,
      "capacity": 5,
      "name": "You Can't Hurry Love",
      "albumId": 97,
      "description": "Cerno turba correptius derideo. Damnatio autem ipsum angustus tenetur sordeo umerus. Colo tener quas deserunt natus tracto absconditus. Tenuis vobis stultus depono defluo synagoga apto. Asporto contabesco curo similique tribuo demitto. Absorbeo qui celebrer vinculum tot caritas audio acer. Tamisium cruentus tribuo mollitia celer verecundia.",
      "features": {
        "generalAmenities": [
          "WiFi",
          "fitness center",
          "karaoke",
          "restaurant",
          "speakers",
          "parking",
          "24h reception"
        ],
        "roomAmenities": ["hypoallergic bedding", "kitchen facilities"],
        "neighbourhoods": [
          "theatre",
          "sea",
          "cinema",
          "historical monument",
          "national park",
          "lake",
          "zoo",
          "amusement park",
          "park",
          "restaurant",
          "mall",
          "museum",
          "church",
          "old town"
        ],
        "handicapAccesibility": ["deaf friendly"]
      },
      "sleepingDetails": { "maxCapacity": 5, "amountOfBeds": 3 },
      "checkInHour": "12pm",
      "checkOutHour": "10am",
      "distanceFromCityCenterInKM": 4,
      "contactDetails": {
        "phone": "(789) 820-6504 x369",
        "email": "YouCantHurryLove77@yahoo.com"
      }
    },
    {
      "id": 6492,
      "venueId": 5,
      "location": { "postalCode": "49-756", "name": "Lake Charles" },
      "pricePerNightInEUR": "528.00",
      "rating": 3.5,
      "numberOfReviews": 7655,
      "capacity": 11,
      "name": "Hold On",
      "albumId": 96,
      "description": "Cometes cunae itaque verus consequatur voluptates. Pecco delectatio vulariter. Acsi animadverto vilis dolor coadunatio apostolus unus sustineo abduco adsuesco. Vester voluptatem tertius benevolentia curis vereor calamitas.",
      "features": {
        "generalAmenities": ["restaurant", "karaoke", "WiFi", "fitness center"],
        "roomAmenities": [
          "hypoallergic bedding",
          "bathroom facilities",
          "kitchen facilities",
          "safe",
          "TV"
        ],
        "neighbourhoods": [
          "amusement park",
          "mountains",
          "park",
          "church",
          "old town",
          "theatre",
          "forest",
          "sea",
          "historical monument",
          "museum",
          "mall",
          "zoo",
          "cinema",
          "restaurant",
          "national park",
          "lake"
        ],
        "handicapAccesibility": []
      },
      "sleepingDetails": { "maxCapacity": 11, "amountOfBeds": 9 },
      "checkInHour": "12pm",
      "checkOutHour": "10am",
      "distanceFromCityCenterInKM": 25,
      "contactDetails": {
        "phone": "(985) 451-1567",
        "email": "HoldOn25@hotmail.com"
      }
    },
    {
      "id": 2184,
      "venueId": 6,
      "location": { "postalCode": "93-803", "name": "Port Garfieldborough" },
      "pricePerNightInEUR": "343.00",
      "rating": 4.8,
      "numberOfReviews": 5900,
      "capacity": 1,
      "name": "The Power of Love",
      "albumId": 95,
      "description": "Aurum coepi sustineo optio succedo assentator conor advoco. Conduco carbo votum.",
      "features": {
        "generalAmenities": [
          "jacuzzi",
          "bar",
          "speakers",
          "karaoke",
          "fireplace",
          "parking",
          "outdoor music",
          "library",
          "pet friendly",
          "playground",
          "pool",
          "indoor music",
          "garden",
          "fitness center"
        ],
        "roomAmenities": ["hypoallergic bedding", "TV", "bathroom facilities"],
        "neighbourhoods": [
          "amusement park",
          "mountains",
          "zoo",
          "museum",
          "park",
          "lake",
          "church",
          "theatre",
          "historical monument",
          "cinema",
          "old town",
          "sea",
          "national park",
          "forest",
          "mall"
        ],
        "handicapAccesibility": ["wheelchair friendly"]
      },
      "sleepingDetails": { "maxCapacity": 1, "amountOfBeds": 1 },
      "checkInHour": "12pm",
      "checkOutHour": "10am",
      "distanceFromCityCenterInKM": 17,
      "contactDetails": {
        "phone": "532-367-4518",
        "email": "ThePowerofLove.PortGarfieldborough@gmail.com"
      }
    },
    {
      "id": 12873,
      "venueId": 7,
      "location": { "postalCode": "95-957", "name": "West Nickolasworth" },
      "pricePerNightInEUR": "943.00",
      "rating": 1.6,
      "numberOfReviews": 8223,
      "capacity": 7,
      "name": "Baby One More Time",
      "albumId": 94,
      "description": "Aequus coadunatio repudiandae quo advoco. Cupio ipsa accedo spes surculus cruentus spero abbas cur consectetur.",
      "features": {
        "generalAmenities": [
          "indoor music",
          "bar",
          "jacuzzi",
          "24h reception",
          "playground",
          "garden",
          "fireplace",
          "pool",
          "library",
          "parking",
          "WiFi",
          "pet friendly",
          "fitness center",
          "restaurant",
          "karaoke",
          "outdoor music",
          "speakers"
        ],
        "roomAmenities": [
          "bathroom facilities",
          "kitchen facilities",
          "hypoallergic bedding"
        ],
        "neighbourhoods": [
          "mall",
          "church",
          "amusement park",
          "national park",
          "historical monument",
          "park",
          "cinema",
          "lake",
          "forest"
        ],
        "handicapAccesibility": [
          "short-grown friendly",
          "blind friendly",
          "deaf friendly"
        ]
      },
      "sleepingDetails": { "maxCapacity": 7, "amountOfBeds": 6 },
      "checkInHour": "12pm",
      "checkOutHour": "10am",
      "distanceFromCityCenterInKM": 14,
      "contactDetails": {
        "phone": "866-577-0937 x79881",
        "email": "BabyOneMoreTime74@gmail.com"
      }
    },
    {
      "id": 6541,
      "venueId": 8,
      "location": { "postalCode": "38-175", "name": "Fort Lauderdale" },
      "pricePerNightInEUR": "583.00",
      "rating": 1.1,
      "numberOfReviews": 869,
      "capacity": 3,
      "name": "One of Us",
      "albumId": 93,
      "description": "Condico antea vox. Tempore speciosus audentia.",
      "features": {
        "generalAmenities": [
          "playground",
          "24h reception",
          "garden",
          "WiFi",
          "pet friendly"
        ],
        "roomAmenities": ["safe", "bathroom facilities", "kitchen facilities"],
        "neighbourhoods": [
          "cinema",
          "mountains",
          "national park",
          "forest",
          "church"
        ],
        "handicapAccesibility": ["deaf friendly"]
      },
      "sleepingDetails": { "maxCapacity": 3, "amountOfBeds": 2 },
      "checkInHour": "12pm",
      "checkOutHour": "10am",
      "distanceFromCityCenterInKM": 29,
      "contactDetails": {
        "phone": "371-577-6337 x830",
        "email": "OneofUs*FortLauderdale86@hotmail.com"
      }
    },
    {
      "id": 18455,
      "venueId": 9,
      "location": { "postalCode": "53-725", "name": "Schuppeshire" },
      "pricePerNightInEUR": "268.00",
      "rating": 4.5,
      "numberOfReviews": 2022,
      "capacity": 3,
      "name": "With Or Without You",
      "albumId": 92,
      "description": "Commodi non somniculosus curriculum consectetur celebrer eligendi bis bis ab. Attero uterque delego ubi utique adopto ambitus depereo. Aequus iste iusto. Texo cubo quas colligo antea defendo talis.",
      "features": {
        "generalAmenities": [
          "jacuzzi",
          "playground",
          "garden",
          "karaoke",
          "WiFi",
          "pool",
          "speakers",
          "indoor music",
          "library",
          "bar",
          "restaurant"
        ],
        "roomAmenities": ["kitchen facilities", "hypoallergic bedding"],
        "neighbourhoods": [
          "forest",
          "zoo",
          "mountains",
          "national park",
          "old town",
          "amusement park",
          "museum",
          "park"
        ],
        "handicapAccesibility": ["deaf friendly"]
      },
      "sleepingDetails": { "maxCapacity": 3, "amountOfBeds": 2 },
      "checkInHour": "12pm",
      "checkOutHour": "10am",
      "distanceFromCityCenterInKM": 7,
      "contactDetails": {
        "phone": "858-846-4632 x6197",
        "email": "WithOrWithoutYou_Schuppeshire3@gmail.com"
      }
    },
    {
      "id": 356,
      "venueId": 10,
      "location": { "postalCode": "64-198", "name": "South Kailynbury" },
      "pricePerNightInEUR": "356.00",
      "rating": 4.9,
      "numberOfReviews": 872,
      "capacity": 8,
      "name": "Physical",
      "albumId": 91,
      "description": "Dolorum bene turba cattus testimonium adipiscor versus rerum. Conicio assumenda arma vel sursum astrum beatus. Aptus verus rem. Accusantium summisse vesica arbustum temptatio adfero deduco pauper sub. Fuga tolero tergum ater voluptatum correptius sit corporis crastinus tumultus. Temeritas somniculosus solus statim temperantia atqui. Centum civitas vae.",
      "features": {
        "generalAmenities": [
          "bar",
          "karaoke",
          "playground",
          "library",
          "jacuzzi",
          "pet friendly",
          "parking",
          "fireplace",
          "WiFi",
          "speakers",
          "fitness center",
          "restaurant",
          "pool",
          "outdoor music",
          "garden"
        ],
        "roomAmenities": [
          "safe",
          "bathroom facilities",
          "kitchen facilities",
          "TV",
          "hypoallergic bedding"
        ],
        "neighbourhoods": [
          "amusement park",
          "cinema",
          "zoo",
          "forest",
          "historical monument",
          "sea",
          "theatre",
          "mall",
          "national park",
          "restaurant"
        ],
        "handicapAccesibility": [
          "deaf friendly",
          "blind friendly",
          "short-grown friendly"
        ]
      },
      "sleepingDetails": { "maxCapacity": 8, "amountOfBeds": 4 },
      "checkInHour": "12pm",
      "checkOutHour": "10am",
      "distanceFromCityCenterInKM": 20,
      "contactDetails": {
        "phone": "1-403-999-4676 x88277",
        "email": "Physical.SouthKailynbury@hotmail.com"
      }
    },
    {
      "id": 3414,
      "venueId": 11,
      "location": { "postalCode": "49-491", "name": "Fort Teresa" },
      "pricePerNightInEUR": "757.00",
      "rating": 2.6,
      "numberOfReviews": 256,
      "capacity": 3,
      "name": "Shout",
      "albumId": 90,
      "description": "Aeneus cubitum bestia. Avaritia testimonium ait expedita.",
      "features": {
        "generalAmenities": [
          "speakers",
          "playground",
          "outdoor music",
          "indoor music",
          "karaoke",
          "fitness center",
          "pet friendly",
          "parking",
          "garden",
          "WiFi"
        ],
        "roomAmenities": ["TV", "hypoallergic bedding"],
        "neighbourhoods": ["restaurant", "mountains", "historical monument"],
        "handicapAccesibility": ["short-grown friendly", "deaf friendly"]
      },
      "sleepingDetails": { "maxCapacity": 3, "amountOfBeds": 2 },
      "checkInHour": "12pm",
      "checkOutHour": "10am",
      "distanceFromCityCenterInKM": 2,
      "contactDetails": {
        "phone": "(337) 464-1138 x3017",
        "email": "Shout_FortTeresa@yahoo.com"
      }
    },
    {
      "id": 6648,
      "venueId": 12,
      "location": { "postalCode": "00-808", "name": "Downey" },
      "pricePerNightInEUR": "286.00",
      "rating": 4,
      "numberOfReviews": 2038,
      "capacity": 5,
      "name": "TSOP (The Sound of Philadelphia)",
      "albumId": 89,
      "description": "Magni tondeo conventus cibo supplanto adhaero supra comis testimonium. Qui cuius traho depono uberrime comburo venustas tum. Ultra depono vitae delinquo vinitor truculenter dolore curto fugit cavus. Vaco quas saepe ara ventus sui vesica. Vobis colligo crapula vapulus damno synagoga suspendo adflicto deripio.",
      "features": {
        "generalAmenities": [
          "fitness center",
          "restaurant",
          "speakers",
          "WiFi",
          "jacuzzi",
          "library",
          "garden",
          "24h reception",
          "outdoor music",
          "pet friendly"
        ],
        "roomAmenities": ["kitchen facilities"],
        "neighbourhoods": [
          "zoo",
          "historical monument",
          "mall",
          "park",
          "cinema",
          "amusement park"
        ],
        "handicapAccesibility": [
          "deaf friendly",
          "short-grown friendly",
          "blind friendly"
        ]
      },
      "sleepingDetails": { "maxCapacity": 5, "amountOfBeds": 5 },
      "checkInHour": "12pm",
      "checkOutHour": "10am",
      "distanceFromCityCenterInKM": 27,
      "contactDetails": {
        "phone": "1-514-798-1813",
        "email": "TSOPTheSoundofPhiladelphia.Downey39@hotmail.com"
      }
    },
    {
      "id": 3836,
      "venueId": 13,
      "location": { "postalCode": "75-989", "name": "Tamarac" },
      "pricePerNightInEUR": "654.00",
      "rating": 4.1,
      "numberOfReviews": 5261,
      "capacity": 5,
      "name": "The Boy is Mine",
      "albumId": 88,
      "description": "Vulgus audentia terminatio tego sonitus caterva voro. Tonsor uxor eveniet cubicularis suppellex corona suffoco sonitus.",
      "features": {
        "generalAmenities": [
          "library",
          "bar",
          "pool",
          "restaurant",
          "garden",
          "indoor music",
          "playground",
          "fitness center",
          "pet friendly",
          "24h reception"
        ],
        "roomAmenities": [
          "hypoallergic bedding",
          "bathroom facilities",
          "TV",
          "safe"
        ],
        "neighbourhoods": [
          "amusement park",
          "old town",
          "church",
          "lake",
          "historical monument",
          "mall",
          "theatre",
          "national park",
          "cinema",
          "forest",
          "mountains",
          "restaurant",
          "park",
          "sea",
          "zoo",
          "museum"
        ],
        "handicapAccesibility": ["wheelchair friendly"]
      },
      "sleepingDetails": { "maxCapacity": 5, "amountOfBeds": 3 },
      "checkInHour": "12pm",
      "checkOutHour": "10am",
      "distanceFromCityCenterInKM": 10,
      "contactDetails": {
        "phone": "1-847-567-1895 x752",
        "email": "TheBoyisMine48@yahoo.com"
      }
    },
    {
      "id": 8016,
      "venueId": 14,
      "location": { "postalCode": "97-614", "name": "Port Janessa" },
      "pricePerNightInEUR": "196.00",
      "rating": 2.8,
      "numberOfReviews": 6511,
      "capacity": 7,
      "name": "Like a Virgin",
      "albumId": 87,
      "description": "Cedo adinventitias aggredior. Sortitus color carus barba collum animus.",
      "features": {
        "generalAmenities": [
          "WiFi",
          "garden",
          "bar",
          "speakers",
          "karaoke",
          "pet friendly",
          "pool",
          "outdoor music",
          "restaurant",
          "indoor music",
          "jacuzzi",
          "playground",
          "library",
          "fireplace"
        ],
        "roomAmenities": ["TV", "bathroom facilities"],
        "neighbourhoods": [
          "church",
          "zoo",
          "mountains",
          "park",
          "cinema",
          "mall",
          "national park",
          "old town"
        ],
        "handicapAccesibility": ["short-grown friendly"]
      },
      "sleepingDetails": { "maxCapacity": 7, "amountOfBeds": 4 },
      "checkInHour": "12pm",
      "checkOutHour": "10am",
      "distanceFromCityCenterInKM": 9,
      "contactDetails": {
        "phone": "(827) 531-7885 x48556",
        "email": "LikeaVirgin&PortJanessa55@hotmail.com"
      }
    },
    {
      "id": 16025,
      "venueId": 15,
      "location": { "postalCode": "07-340", "name": "South Harmonyfield" },
      "pricePerNightInEUR": "917.00",
      "rating": 4.1,
      "numberOfReviews": 1023,
      "capacity": 1,
      "name": "Hurt So Good",
      "albumId": 86,
      "description": "Cicuta cuius desipio coruscus praesentium sint cruciamentum. Repudiandae voluptatem sum venia repudiandae uterque utrimque pel absum. Voro ultio veritatis callide capto ambulo molestias vorax stipes custodia. Tero veritatis doloribus contigo dolorum adfero. Caste sumo coma vulpes canis animi viduo voluptas addo.",
      "features": {
        "generalAmenities": [
          "garden",
          "fireplace",
          "playground",
          "karaoke",
          "WiFi",
          "indoor music",
          "jacuzzi"
        ],
        "roomAmenities": ["bathroom facilities"],
        "neighbourhoods": [
          "sea",
          "national park",
          "lake",
          "forest",
          "mountains",
          "old town",
          "theatre",
          "restaurant"
        ],
        "handicapAccesibility": []
      },
      "sleepingDetails": { "maxCapacity": 1, "amountOfBeds": 1 },
      "checkInHour": "12pm",
      "checkOutHour": "10am",
      "distanceFromCityCenterInKM": 27,
      "contactDetails": {
        "phone": "913.210.7013 x677",
        "email": "HurtSoGood_SouthHarmonyfield41@gmail.com"
      }
    },
    {
      "id": 19135,
      "venueId": 16,
      "location": { "postalCode": "83-096", "name": "Imogenehaven" },
      "pricePerNightInEUR": "761.00",
      "rating": 3.5,
      "numberOfReviews": 9109,
      "capacity": 8,
      "name": "A Hard Day's Night",
      "albumId": 85,
      "description": "Caute aiunt carmen molestiae caste averto praesentium suasoria vicissitudo temporibus. Toties contigo ubi comedo ipsam consequuntur toties. Temperantia comminor decerno comis dicta taceo hic unde virgo. Cum certe utor degenero quis varius. Crastinus stella cribro stipes demo architecto velociter absens caveo molestias. Omnis crux crebro vel beatus delectatio. Terreo bellicus denique utpote angulus certus vulnero canto.",
      "features": {
        "generalAmenities": [
          "playground",
          "24h reception",
          "indoor music",
          "karaoke",
          "pet friendly",
          "bar",
          "jacuzzi",
          "pool",
          "speakers",
          "parking",
          "restaurant",
          "library"
        ],
        "roomAmenities": ["TV", "hypoallergic bedding"],
        "neighbourhoods": [
          "museum",
          "restaurant",
          "national park",
          "forest",
          "zoo",
          "church",
          "theatre",
          "lake"
        ],
        "handicapAccesibility": [
          "deaf friendly",
          "blind friendly",
          "short-grown friendly",
          "wheelchair friendly"
        ]
      },
      "sleepingDetails": { "maxCapacity": 8, "amountOfBeds": 7 },
      "checkInHour": "12pm",
      "checkOutHour": "10am",
      "distanceFromCityCenterInKM": 2,
      "contactDetails": {
        "phone": "1-276-522-5453 x1772",
        "email": "AHardDaysNight.Imogenehaven5@gmail.com"
      }
    },
    {
      "id": 2033,
      "venueId": 17,
      "location": { "postalCode": "66-289", "name": "East Sherman" },
      "pricePerNightInEUR": "747.00",
      "rating": 4.6,
      "numberOfReviews": 6055,
      "capacity": 2,
      "name": "Maggie May",
      "albumId": 84,
      "description": "Demergo synagoga deprecator suppellex cursus vomer thymum. Valens spiculum tot. Spectaculum cur deludo. Celebrer solvo derelinquo curo. Deludo vinum quod sub fuga.",
      "features": {
        "generalAmenities": [
          "fireplace",
          "indoor music",
          "fitness center",
          "library",
          "speakers",
          "garden",
          "outdoor music",
          "restaurant",
          "bar",
          "pool",
          "WiFi"
        ],
        "roomAmenities": ["bathroom facilities", "kitchen facilities", "TV"],
        "neighbourhoods": [
          "sea",
          "forest",
          "national park",
          "park",
          "church",
          "restaurant",
          "historical monument",
          "theatre",
          "mountains",
          "old town"
        ],
        "handicapAccesibility": ["short-grown friendly"]
      },
      "sleepingDetails": { "maxCapacity": 2, "amountOfBeds": 2 },
      "checkInHour": "12pm",
      "checkOutHour": "10am",
      "distanceFromCityCenterInKM": 30,
      "contactDetails": {
        "phone": "236-669-4945",
        "email": "MaggieMay_EastSherman@hotmail.com"
      }
    },
    {
      "id": 884,
      "venueId": 18,
      "location": { "postalCode": "48-288", "name": "Ileneport" },
      "pricePerNightInEUR": "577.00",
      "rating": 1,
      "numberOfReviews": 4775,
      "capacity": 7,
      "name": "Roses Are Red",
      "albumId": 83,
      "description": "Thema tam culpa calamitas decor. Peior calculus quo. Adstringo textilis ventito spargo colo turpis artificiose. Corroboro baiulus terra.",
      "features": {
        "generalAmenities": [
          "outdoor music",
          "bar",
          "playground",
          "WiFi",
          "garden",
          "fireplace",
          "fitness center",
          "restaurant",
          "karaoke",
          "indoor music",
          "parking"
        ],
        "roomAmenities": ["kitchen facilities"],
        "neighbourhoods": ["cinema", "amusement park", "lake"],
        "handicapAccesibility": ["blind friendly"]
      },
      "sleepingDetails": { "maxCapacity": 7, "amountOfBeds": 6 },
      "checkInHour": "12pm",
      "checkOutHour": "10am",
      "distanceFromCityCenterInKM": 10,
      "contactDetails": {
        "phone": "(666) 550-3068 x77211",
        "email": "RosesAreRed_Ileneport98@gmail.com"
      }
    },
    {
      "id": 14056,
      "venueId": 19,
      "location": { "postalCode": "36-791", "name": "Kenosha" },
      "pricePerNightInEUR": "71.00",
      "rating": 1.1,
      "numberOfReviews": 3205,
      "capacity": 8,
      "name": "Jump",
      "albumId": 82,
      "description": "Defungo vis cavus. Copiose cupio cornu subiungo. Ager amaritudo uberrime caterva apparatus.",
      "features": {
        "generalAmenities": [
          "fitness center",
          "parking",
          "WiFi",
          "bar",
          "fireplace",
          "speakers"
        ],
        "roomAmenities": ["safe", "bathroom facilities", "TV"],
        "neighbourhoods": [
          "lake",
          "church",
          "cinema",
          "theatre",
          "museum",
          "amusement park"
        ],
        "handicapAccesibility": [
          "wheelchair friendly",
          "short-grown friendly",
          "deaf friendly",
          "blind friendly"
        ]
      },
      "sleepingDetails": { "maxCapacity": 8, "amountOfBeds": 5 },
      "checkInHour": "12pm",
      "checkOutHour": "10am",
      "distanceFromCityCenterInKM": 13,
      "contactDetails": {
        "phone": "887.904.3210 x759",
        "email": "Jump_Kenosha18@yahoo.com"
      }
    },
    {
      "id": 1779,
      "venueId": 20,
      "location": { "postalCode": "69-854", "name": "Karlichester" },
      "pricePerNightInEUR": "459.00",
      "rating": 2.5,
      "numberOfReviews": 6958,
      "capacity": 1,
      "name": "Disco Duck",
      "albumId": 81,
      "description": "Absens denego a. Tribuo suppono ager temporibus acerbitas creator. Tergum deduco soleo degusto defero balbus synagoga illo vespillo annus. Creptio adversus capitulus ustulo taceo tum tubineus conitor. Quisquam tendo iste cupio claudeo. Statim advenio vitium. Tonsor tres deorsum cimentarius deduco turba tam cresco speculum.",
      "features": {
        "generalAmenities": [
          "playground",
          "karaoke",
          "WiFi",
          "restaurant",
          "parking",
          "indoor music",
          "pet friendly"
        ],
        "roomAmenities": [
          "safe",
          "hypoallergic bedding",
          "kitchen facilities",
          "bathroom facilities"
        ],
        "neighbourhoods": ["mall", "museum", "lake"],
        "handicapAccesibility": ["short-grown friendly"]
      },
      "sleepingDetails": { "maxCapacity": 1, "amountOfBeds": 1 },
      "checkInHour": "12pm",
      "checkOutHour": "10am",
      "distanceFromCityCenterInKM": 29,
      "contactDetails": {
        "phone": "894-472-9954",
        "email": "DiscoDuck.Karlichester65@hotmail.com"
      }
    },
    {
      "id": 6534,
      "venueId": 21,
      "location": { "postalCode": "58-144", "name": "East Danyka" },
      "pricePerNightInEUR": "734.00",
      "rating": 1.1,
      "numberOfReviews": 2402,
      "capacity": 2,
      "name": "I Will Always Love You",
      "albumId": 80,
      "description": "Aestivus pariatur coepi conitor comedo impedit sum crepusculum. Tot debitis triduana correptius solus adhaero cresco abbas. Adnuo veniam tero animadverto terreo supellex. Fugit ulciscor adulatio callide via audax aetas. Caste aegrotatio corporis harum chirographum utor arguo thema amitto. Solutio suasoria quaerat undique truculenter complectus. Turpis demergo summa studio.",
      "features": {
        "generalAmenities": [
          "24h reception",
          "fitness center",
          "garden",
          "restaurant",
          "outdoor music"
        ],
        "roomAmenities": [
          "safe",
          "hypoallergic bedding",
          "kitchen facilities",
          "TV"
        ],
        "neighbourhoods": [
          "old town",
          "sea",
          "historical monument",
          "lake",
          "mountains",
          "church",
          "museum"
        ],
        "handicapAccesibility": ["wheelchair friendly"]
      },
      "sleepingDetails": { "maxCapacity": 2, "amountOfBeds": 2 },
      "checkInHour": "12pm",
      "checkOutHour": "10am",
      "distanceFromCityCenterInKM": 12,
      "contactDetails": {
        "phone": "(501) 702-8589",
        "email": "IWillAlwaysLoveYou_EastDanyka1@gmail.com"
      }
    },
    {
      "id": 18464,
      "venueId": 22,
      "location": { "postalCode": "43-772", "name": "Jacksonville" },
      "pricePerNightInEUR": "64.00",
      "rating": 2.8,
      "numberOfReviews": 7096,
      "capacity": 7,
      "name": "School's Out",
      "albumId": 79,
      "description": "Cernuus corrumpo venustas sustineo viridis vobis denuncio. Fugiat decerno vilitas stillicidium verbera.",
      "features": {
        "generalAmenities": [
          "24h reception",
          "garden",
          "WiFi",
          "restaurant",
          "speakers",
          "jacuzzi",
          "bar",
          "parking",
          "library",
          "fireplace",
          "outdoor music",
          "fitness center"
        ],
        "roomAmenities": [
          "safe",
          "TV",
          "hypoallergic bedding",
          "bathroom facilities",
          "kitchen facilities"
        ],
        "neighbourhoods": [
          "park",
          "mall",
          "historical monument",
          "amusement park",
          "zoo",
          "lake",
          "museum",
          "restaurant",
          "sea",
          "old town",
          "mountains"
        ],
        "handicapAccesibility": [
          "blind friendly",
          "short-grown friendly",
          "deaf friendly"
        ]
      },
      "sleepingDetails": { "maxCapacity": 7, "amountOfBeds": 6 },
      "checkInHour": "12pm",
      "checkOutHour": "10am",
      "distanceFromCityCenterInKM": 30,
      "contactDetails": {
        "phone": "555-591-4385 x86145",
        "email": "SchoolsOut72@yahoo.com"
      }
    },
    {
      "id": 8762,
      "venueId": 23,
      "location": { "postalCode": "83-336", "name": "Lake Jammie" },
      "pricePerNightInEUR": "502.00",
      "rating": 1.3,
      "numberOfReviews": 3026,
      "capacity": 11,
      "name": "Pick Up the Pieces",
      "albumId": 78,
      "description": "Amita crepusculum cunae amaritudo quisquam adnuo. Tamquam molestiae vestrum delectatio. Virgo corrupti tollo correptius sequi vomica. Calcar tantum sordeo.",
      "features": {
        "generalAmenities": [
          "jacuzzi",
          "outdoor music",
          "restaurant",
          "pet friendly",
          "playground",
          "24h reception",
          "parking",
          "pool",
          "speakers",
          "fitness center",
          "karaoke",
          "WiFi",
          "fireplace",
          "indoor music",
          "library"
        ],
        "roomAmenities": ["TV"],
        "neighbourhoods": ["national park", "mountains", "lake"],
        "handicapAccesibility": [
          "deaf friendly",
          "blind friendly",
          "short-grown friendly"
        ]
      },
      "sleepingDetails": { "maxCapacity": 11, "amountOfBeds": 7 },
      "checkInHour": "12pm",
      "checkOutHour": "10am",
      "distanceFromCityCenterInKM": 16,
      "contactDetails": {
        "phone": "(586) 249-9227",
        "email": "PickUpthePieces_LakeJammie@hotmail.com"
      }
    },
    {
      "id": 4358,
      "venueId": 24,
      "location": { "postalCode": "14-543", "name": "South Reanna" },
      "pricePerNightInEUR": "227.00",
      "rating": 1.2,
      "numberOfReviews": 9643,
      "capacity": 12,
      "name": "Judy in Disguise (With Glasses)",
      "albumId": 77,
      "description": "Accendo ciminatio admoveo creta velociter neque tenetur tibi cribro tantillus. Pecco assumenda quam vestrum totam defungo pel appello carmen. Vos pecto conqueror umbra cimentarius dedico vociferor vacuus venia. Agnitio tempore tribuo atrox.",
      "features": {
        "generalAmenities": [
          "garden",
          "pool",
          "24h reception",
          "WiFi",
          "fitness center",
          "jacuzzi",
          "fireplace",
          "pet friendly",
          "playground",
          "karaoke",
          "indoor music",
          "outdoor music",
          "restaurant",
          "parking",
          "library",
          "bar",
          "speakers"
        ],
        "roomAmenities": [
          "bathroom facilities",
          "hypoallergic bedding",
          "safe",
          "TV",
          "kitchen facilities"
        ],
        "neighbourhoods": [
          "church",
          "mountains",
          "park",
          "museum",
          "old town",
          "theatre",
          "amusement park",
          "forest",
          "national park",
          "zoo",
          "lake",
          "cinema"
        ],
        "handicapAccesibility": [
          "deaf friendly",
          "blind friendly",
          "short-grown friendly"
        ]
      },
      "sleepingDetails": { "maxCapacity": 12, "amountOfBeds": 6 },
      "checkInHour": "12pm",
      "checkOutHour": "10am",
      "distanceFromCityCenterInKM": 16,
      "contactDetails": {
        "phone": "977-450-4132 x80205",
        "email": "JudyinDisguiseWithGlasses_SouthReanna32@yahoo.com"
      }
    },
    {
      "id": 14722,
      "venueId": 25,
      "location": { "postalCode": "70-049", "name": "New Jake" },
      "pricePerNightInEUR": "785.00",
      "rating": 3.5,
      "numberOfReviews": 8280,
      "capacity": 3,
      "name": "Get Down Tonight",
      "albumId": 76,
      "description": "Victoria verecundia campana vergo annus votum totidem celebrer sub sui. Vero demulceo crebro velociter arcesso.",
      "features": {
        "generalAmenities": [
          "WiFi",
          "playground",
          "fitness center",
          "indoor music",
          "garden",
          "pool"
        ],
        "roomAmenities": ["kitchen facilities", "safe", "bathroom facilities"],
        "neighbourhoods": [
          "historical monument",
          "church",
          "national park",
          "forest",
          "mall",
          "sea",
          "park",
          "zoo",
          "museum"
        ],
        "handicapAccesibility": [
          "short-grown friendly",
          "deaf friendly",
          "wheelchair friendly",
          "blind friendly"
        ]
      },
      "sleepingDetails": { "maxCapacity": 3, "amountOfBeds": 3 },
      "checkInHour": "12pm",
      "checkOutHour": "10am",
      "distanceFromCityCenterInKM": 17,
      "contactDetails": {
        "phone": "1-554-470-3991 x85562",
        "email": "GetDownTonight.NewJake@yahoo.com"
      }
    },
    {
      "id": 1945,
      "venueId": 26,
      "location": { "postalCode": "87-135", "name": "East Grahamside" },
      "pricePerNightInEUR": "864.00",
      "rating": 4.1,
      "numberOfReviews": 1534,
      "capacity": 7,
      "name": "Travellin' Man",
      "albumId": 75,
      "description": "Creber viriliter voluntarius cursim acsi vero aeger. Demum summopere cuius capto vallum umbra. Crux corrigo deduco custodia caveo barba voluptatem suadeo caelestis. Bonus praesentium tabgo. Vinco somnus capto villa amo quae patior appello vereor abeo. Vergo doloribus perferendis conculco suscipio adipiscor in provident tondeo ademptio. Alioqui adflicto reiciendis advoco credo centum quia cetera praesentium.",
      "features": {
        "generalAmenities": [
          "parking",
          "restaurant",
          "24h reception",
          "bar",
          "fireplace",
          "karaoke",
          "outdoor music",
          "WiFi",
          "fitness center",
          "pet friendly",
          "indoor music",
          "library",
          "pool",
          "speakers"
        ],
        "roomAmenities": [
          "hypoallergic bedding",
          "safe",
          "kitchen facilities",
          "TV"
        ],
        "neighbourhoods": [
          "lake",
          "park",
          "theatre",
          "mall",
          "sea",
          "old town",
          "amusement park",
          "mountains",
          "historical monument",
          "forest",
          "zoo",
          "cinema",
          "restaurant",
          "national park",
          "museum"
        ],
        "handicapAccesibility": ["blind friendly"]
      },
      "sleepingDetails": { "maxCapacity": 7, "amountOfBeds": 5 },
      "checkInHour": "12pm",
      "checkOutHour": "10am",
      "distanceFromCityCenterInKM": 18,
      "contactDetails": {
        "phone": "(534) 908-3790 x25207",
        "email": "TravellinMan.EastGrahamside@gmail.com"
      }
    },
    {
      "id": 9976,
      "venueId": 27,
      "location": { "postalCode": "19-446", "name": "Pomona" },
      "pricePerNightInEUR": "993.00",
      "rating": 2.3,
      "numberOfReviews": 7801,
      "capacity": 9,
      "name": "Love Train",
      "albumId": 74,
      "description": "Super curvo magnam volaticus caterva cum cenaculum absum exercitationem. Aduro nobis deserunt abundans conitor voluptatem.",
      "features": {
        "generalAmenities": [
          "pet friendly",
          "outdoor music",
          "indoor music",
          "fireplace"
        ],
        "roomAmenities": [
          "hypoallergic bedding",
          "TV",
          "kitchen facilities",
          "bathroom facilities",
          "safe"
        ],
        "neighbourhoods": [
          "national park",
          "amusement park",
          "theatre",
          "sea",
          "old town",
          "forest",
          "restaurant",
          "museum",
          "mall",
          "church"
        ],
        "handicapAccesibility": ["short-grown friendly", "deaf friendly"]
      },
      "sleepingDetails": { "maxCapacity": 9, "amountOfBeds": 5 },
      "checkInHour": "12pm",
      "checkOutHour": "10am",
      "distanceFromCityCenterInKM": 2,
      "contactDetails": {
        "phone": "(906) 263-5342 x9048",
        "email": "LoveTrain.Pomona3@yahoo.com"
      }
    },
    {
      "id": 8087,
      "venueId": 28,
      "location": { "postalCode": "16-829", "name": "South Sallie" },
      "pricePerNightInEUR": "594.00",
      "rating": 3,
      "numberOfReviews": 5606,
      "capacity": 6,
      "name": "April Showers",
      "albumId": 73,
      "description": "Paulatim beatae similique solvo cursim concido validus benevolentia. Spiritus amicitia dapifer vorax libero cervus. Tribuo spectaculum at fuga vestigium adduco totidem. Creo casus timidus. Cornu virgo clam vis sumo vulariter tempora totam. Antiquus comminor strues abduco crepusculum vito aliquid defero quidem patria. Conturbo soleo umerus quibusdam.",
      "features": {
        "generalAmenities": [
          "fireplace",
          "jacuzzi",
          "garden",
          "indoor music",
          "parking",
          "24h reception",
          "fitness center",
          "karaoke",
          "speakers",
          "pool",
          "restaurant"
        ],
        "roomAmenities": ["safe", "bathroom facilities", "TV"],
        "neighbourhoods": [
          "historical monument",
          "national park",
          "forest",
          "mall",
          "mountains",
          "park",
          "theatre",
          "church",
          "amusement park",
          "cinema",
          "zoo"
        ],
        "handicapAccesibility": [
          "blind friendly",
          "deaf friendly",
          "wheelchair friendly"
        ]
      },
      "sleepingDetails": { "maxCapacity": 6, "amountOfBeds": 6 },
      "checkInHour": "12pm",
      "checkOutHour": "10am",
      "distanceFromCityCenterInKM": 3,
      "contactDetails": {
        "phone": "1-423-201-2599 x5325",
        "email": "AprilShowers86@hotmail.com"
      }
    },
    {
      "id": 5903,
      "venueId": 29,
      "location": { "postalCode": "15-776", "name": "Lake Ewaldburgh" },
      "pricePerNightInEUR": "913.00",
      "rating": 1.3,
      "numberOfReviews": 8725,
      "capacity": 1,
      "name": "Revolution",
      "albumId": 72,
      "description": "Veritas canis desino casso quam terebro termes sodalitas ascisco quis. Sophismata accendo cultura. Amitto tenax a tamen incidunt.",
      "features": {
        "generalAmenities": [
          "pet friendly",
          "karaoke",
          "garden",
          "speakers",
          "outdoor music",
          "library",
          "fitness center",
          "restaurant",
          "indoor music",
          "24h reception",
          "fireplace",
          "jacuzzi",
          "pool"
        ],
        "roomAmenities": [
          "kitchen facilities",
          "TV",
          "hypoallergic bedding",
          "bathroom facilities",
          "safe"
        ],
        "neighbourhoods": [
          "theatre",
          "amusement park",
          "restaurant",
          "old town",
          "sea",
          "museum",
          "zoo",
          "park"
        ],
        "handicapAccesibility": [
          "wheelchair friendly",
          "blind friendly",
          "deaf friendly"
        ]
      },
      "sleepingDetails": { "maxCapacity": 1, "amountOfBeds": 1 },
      "checkInHour": "12pm",
      "checkOutHour": "10am",
      "distanceFromCityCenterInKM": 21,
      "contactDetails": {
        "phone": "964.204.1357 x57638",
        "email": "Revolution.LakeEwaldburgh94@hotmail.com"
      }
    },
    {
      "id": 351,
      "venueId": 30,
      "location": { "postalCode": "95-358", "name": "Augustineland" },
      "pricePerNightInEUR": "105.00",
      "rating": 3.1,
      "numberOfReviews": 9088,
      "capacity": 6,
      "name": "Crimson & Clover",
      "albumId": 71,
      "description": "Casus subnecto trado statim caelestis annus denuo. Arto altus cattus coniuratio aer advoco tergo facilis labore cicuta.",
      "features": {
        "generalAmenities": [
          "parking",
          "indoor music",
          "WiFi",
          "pool",
          "library",
          "jacuzzi",
          "fitness center",
          "pet friendly",
          "speakers",
          "outdoor music",
          "24h reception",
          "karaoke",
          "garden",
          "bar",
          "restaurant",
          "fireplace",
          "playground"
        ],
        "roomAmenities": [
          "TV",
          "safe",
          "bathroom facilities",
          "kitchen facilities",
          "hypoallergic bedding"
        ],
        "neighbourhoods": ["mall", "lake", "zoo"],
        "handicapAccesibility": []
      },
      "sleepingDetails": { "maxCapacity": 6, "amountOfBeds": 5 },
      "checkInHour": "12pm",
      "checkOutHour": "10am",
      "distanceFromCityCenterInKM": 9,
      "contactDetails": {
        "phone": "328.476.7527",
        "email": "CrimsonClover.Augustineland@hotmail.com"
      }
    },
    {
      "id": 11632,
      "venueId": 31,
      "location": { "postalCode": "29-769", "name": "Alberthafield" },
      "pricePerNightInEUR": "152.00",
      "rating": 4.8,
      "numberOfReviews": 9651,
      "capacity": 3,
      "name": "You Light Up My Life",
      "albumId": 70,
      "description": "Video amo apto ago verumtamen corrumpo strues vestrum ager adulatio. Vulpes pecus thesis curiositas. Unus verecundia cubicularis sophismata iure. Decimus terga valeo crustulum stultus coadunatio conventus atavus modi. Culpo verumtamen cedo tergum solus spectaculum vomica. Verecundia ubi totam ea damno demergo cumque volup absorbeo.",
      "features": {
        "generalAmenities": [
          "outdoor music",
          "pool",
          "library",
          "indoor music",
          "speakers",
          "bar",
          "jacuzzi",
          "restaurant",
          "fitness center",
          "pet friendly",
          "WiFi",
          "garden"
        ],
        "roomAmenities": ["hypoallergic bedding"],
        "neighbourhoods": [
          "zoo",
          "sea",
          "park",
          "national park",
          "restaurant",
          "mountains",
          "church",
          "museum",
          "cinema",
          "lake",
          "amusement park",
          "old town",
          "historical monument",
          "theatre"
        ],
        "handicapAccesibility": [
          "deaf friendly",
          "wheelchair friendly",
          "short-grown friendly"
        ]
      },
      "sleepingDetails": { "maxCapacity": 3, "amountOfBeds": 2 },
      "checkInHour": "12pm",
      "checkOutHour": "10am",
      "distanceFromCityCenterInKM": 17,
      "contactDetails": {
        "phone": "(440) 247-0088 x702",
        "email": "YouLightUpMyLife`Alberthafield@hotmail.com"
      }
    },
    {
      "id": 17732,
      "venueId": 32,
      "location": { "postalCode": "90-554", "name": "Marinachester" },
      "pricePerNightInEUR": "777.00",
      "rating": 4.3,
      "numberOfReviews": 8464,
      "capacity": 3,
      "name": "Till I Waltz Again With You",
      "albumId": 69,
      "description": "Sto sed conitor. Verbera adopto causa deorsum decerno adipiscor. Eius curia pecus eius vociferor verus laudantium. Balbus pauper quis carus bos defessus animus. Solum volutabrum arbitro truculenter. Tero comminor reiciendis doloribus attollo. Versus appositus rerum trucido.",
      "features": {
        "generalAmenities": [
          "outdoor music",
          "jacuzzi",
          "indoor music",
          "karaoke",
          "parking",
          "pool",
          "garden",
          "pet friendly",
          "bar",
          "speakers",
          "WiFi",
          "restaurant",
          "fitness center"
        ],
        "roomAmenities": ["bathroom facilities"],
        "neighbourhoods": [
          "church",
          "lake",
          "sea",
          "cinema",
          "restaurant",
          "mall",
          "amusement park",
          "national park",
          "park",
          "old town",
          "mountains",
          "theatre",
          "museum",
          "forest"
        ],
        "handicapAccesibility": [
          "short-grown friendly",
          "blind friendly",
          "wheelchair friendly"
        ]
      },
      "sleepingDetails": { "maxCapacity": 3, "amountOfBeds": 3 },
      "checkInHour": "12pm",
      "checkOutHour": "10am",
      "distanceFromCityCenterInKM": 23,
      "contactDetails": {
        "phone": "(936) 942-4572 x123",
        "email": "TillIWaltzAgainWithYou'Marinachester68@hotmail.com"
      }
    },
    {
      "id": 14473,
      "venueId": 33,
      "location": { "postalCode": "57-712", "name": "Klingfurt" },
      "pricePerNightInEUR": "900.00",
      "rating": 4.2,
      "numberOfReviews": 2556,
      "capacity": 5,
      "name": "You Were Meant for Me",
      "albumId": 68,
      "description": "Cursus spiritus terror accedo ventito angelus. Vallum acidus explicabo thesis bos subiungo confero thorax ver.",
      "features": {
        "generalAmenities": [
          "pet friendly",
          "karaoke",
          "fireplace",
          "fitness center",
          "garden",
          "bar",
          "library",
          "pool",
          "WiFi",
          "jacuzzi",
          "outdoor music",
          "restaurant"
        ],
        "roomAmenities": ["TV", "bathroom facilities"],
        "neighbourhoods": [
          "zoo",
          "mall",
          "theatre",
          "cinema",
          "park",
          "forest",
          "historical monument"
        ],
        "handicapAccesibility": [
          "wheelchair friendly",
          "short-grown friendly",
          "deaf friendly",
          "blind friendly"
        ]
      },
      "sleepingDetails": { "maxCapacity": 5, "amountOfBeds": 5 },
      "checkInHour": "12pm",
      "checkOutHour": "10am",
      "distanceFromCityCenterInKM": 18,
      "contactDetails": {
        "phone": "862-241-2797 x452",
        "email": "YouWereMeantforMe'Klingfurt@hotmail.com"
      }
    },
    {
      "id": 16626,
      "venueId": 34,
      "location": { "postalCode": "40-640", "name": "East Tyrese" },
      "pricePerNightInEUR": "899.00",
      "rating": 2.5,
      "numberOfReviews": 388,
      "capacity": 7,
      "name": "Pistol Packin' Mama",
      "albumId": 67,
      "description": "Sumptus vere voveo socius benevolentia vacuus. Assentator alveus comis colligo cultura demulceo. Auctus natus apto censura magni consequatur. Suggero adstringo cupiditate caveo molestiae. Sollers quo calculus callide usus.",
      "features": {
        "generalAmenities": [
          "fireplace",
          "pet friendly",
          "parking",
          "garden",
          "restaurant",
          "24h reception",
          "library",
          "outdoor music",
          "jacuzzi",
          "fitness center",
          "WiFi",
          "playground",
          "bar",
          "pool",
          "speakers",
          "indoor music",
          "karaoke"
        ],
        "roomAmenities": ["safe", "bathroom facilities"],
        "neighbourhoods": [
          "lake",
          "historical monument",
          "forest",
          "mall",
          "museum",
          "national park",
          "theatre",
          "restaurant",
          "cinema",
          "zoo",
          "amusement park",
          "park",
          "church",
          "sea",
          "mountains"
        ],
        "handicapAccesibility": ["deaf friendly"]
      },
      "sleepingDetails": { "maxCapacity": 7, "amountOfBeds": 5 },
      "checkInHour": "12pm",
      "checkOutHour": "10am",
      "distanceFromCityCenterInKM": 18,
      "contactDetails": {
        "phone": "539.335.1405",
        "email": "PistolPackinMama79@yahoo.com"
      }
    },
    {
      "id": 11066,
      "venueId": 35,
      "location": { "postalCode": "54-888", "name": "Fort Samirbury" },
      "pricePerNightInEUR": "129.00",
      "rating": 1.3,
      "numberOfReviews": 2718,
      "capacity": 2,
      "name": "Mony Mony",
      "albumId": 66,
      "description": "Iure cunabula depopulo excepturi valeo. Tracto despecto sufficio audax thesis inventore amo. Occaecati tergeo solus officiis cruentus decens accusamus abstergo. Defessus bonus decumbo cotidie pel sint cresco iure substantia. Sono canto careo desipio stipes vinco iste cedo. Abstergo clamo illum conitor angustus thesaurus casso aranea. Torqueo minus ea cunabula censura ante quia administratio.",
      "features": {
        "generalAmenities": [
          "playground",
          "library",
          "fireplace",
          "indoor music",
          "speakers"
        ],
        "roomAmenities": ["TV", "safe", "hypoallergic bedding"],
        "neighbourhoods": [
          "museum",
          "mountains",
          "restaurant",
          "old town",
          "park",
          "theatre",
          "lake",
          "amusement park",
          "cinema",
          "historical monument",
          "sea",
          "church",
          "national park",
          "zoo",
          "forest",
          "mall"
        ],
        "handicapAccesibility": ["blind friendly"]
      },
      "sleepingDetails": { "maxCapacity": 2, "amountOfBeds": 2 },
      "checkInHour": "12pm",
      "checkOutHour": "10am",
      "distanceFromCityCenterInKM": 27,
      "contactDetails": {
        "phone": "472.631.1930 x6807",
        "email": "MonyMony!FortSamirbury@hotmail.com"
      }
    },
    {
      "id": 18273,
      "venueId": 36,
      "location": { "postalCode": "32-610", "name": "New Katelyn" },
      "pricePerNightInEUR": "700.00",
      "rating": 1.3,
      "numberOfReviews": 306,
      "capacity": 1,
      "name": "Burn",
      "albumId": 65,
      "description": "Caterva ipsam conculco sum demo sulum abbas cras. Rerum alioqui tenus admoveo nihil magnam. Virgo curtus tumultus aspernatur deprecator pecco ventus theologus convoco. Aspernatur optio calamitas caries adsidue minus denuncio. Uxor trucido aeneus absum arma ambulo.",
      "features": {
        "generalAmenities": [
          "pet friendly",
          "24h reception",
          "karaoke",
          "outdoor music",
          "WiFi",
          "pool",
          "restaurant",
          "fireplace",
          "jacuzzi",
          "library",
          "playground",
          "indoor music",
          "bar",
          "speakers",
          "garden",
          "parking"
        ],
        "roomAmenities": [
          "kitchen facilities",
          "TV",
          "hypoallergic bedding",
          "bathroom facilities",
          "safe"
        ],
        "neighbourhoods": [
          "old town",
          "amusement park",
          "lake",
          "park",
          "historical monument",
          "restaurant",
          "museum",
          "mountains",
          "church",
          "cinema"
        ],
        "handicapAccesibility": [
          "deaf friendly",
          "blind friendly",
          "short-grown friendly"
        ]
      },
      "sleepingDetails": { "maxCapacity": 1, "amountOfBeds": 1 },
      "checkInHour": "12pm",
      "checkOutHour": "10am",
      "distanceFromCityCenterInKM": 26,
      "contactDetails": {
        "phone": "(496) 496-1863",
        "email": "Burn48@yahoo.com"
      }
    },
    {
      "id": 6199,
      "venueId": 37,
      "location": { "postalCode": "54-923", "name": "Kaiaboro" },
      "pricePerNightInEUR": "486.00",
      "rating": 2.9,
      "numberOfReviews": 9452,
      "capacity": 9,
      "name": "Tossing & Turning",
      "albumId": 64,
      "description": "Pecco ubi arceo nisi pax patrocinor conculco adflicto tenetur uter. Delectatio odit callide vilitas magnam adnuo pariatur timidus. Verto annus spiculum vesco defungo corpus communis et tergiversatio benevolentia.",
      "features": {
        "generalAmenities": ["karaoke", "fitness center", "fireplace"],
        "roomAmenities": [
          "safe",
          "bathroom facilities",
          "TV",
          "hypoallergic bedding",
          "kitchen facilities"
        ],
        "neighbourhoods": [
          "old town",
          "zoo",
          "theatre",
          "national park",
          "sea"
        ],
        "handicapAccesibility": []
      },
      "sleepingDetails": { "maxCapacity": 9, "amountOfBeds": 5 },
      "checkInHour": "12pm",
      "checkOutHour": "10am",
      "distanceFromCityCenterInKM": 23,
      "contactDetails": {
        "phone": "1-773-863-6110 x92921",
        "email": "TossingTurning^Kaiaboro56@hotmail.com"
      }
    },
    {
      "id": 1891,
      "venueId": 38,
      "location": { "postalCode": "54-293", "name": "Port Lorenza" },
      "pricePerNightInEUR": "948.00",
      "rating": 2.9,
      "numberOfReviews": 6406,
      "capacity": 11,
      "name": "Stay (I Missed You)",
      "albumId": 63,
      "description": "Subvenio sint damno id sublime vitae. Angelus caterva timor aequus conturbo universe odit paulatim. Debitis succurro dolore. Cupiditate sono cetera corrumpo celebrer cunabula versus una deludo. Absorbeo talus timor cunctatio velociter benigne ventus vacuus ulciscor quisquam. Voro dolorem attero despecto architecto cuppedia patruus spiculum.",
      "features": {
        "generalAmenities": [
          "karaoke",
          "parking",
          "bar",
          "pool",
          "restaurant",
          "speakers",
          "WiFi",
          "playground"
        ],
        "roomAmenities": ["TV", "safe"],
        "neighbourhoods": ["restaurant", "church", "mountains", "museum"],
        "handicapAccesibility": ["deaf friendly"]
      },
      "sleepingDetails": { "maxCapacity": 11, "amountOfBeds": 8 },
      "checkInHour": "12pm",
      "checkOutHour": "10am",
      "distanceFromCityCenterInKM": 13,
      "contactDetails": {
        "phone": "1-417-288-5369 x08458",
        "email": "StayIMissedYou.PortLorenza@yahoo.com"
      }
    },
    {
      "id": 5684,
      "venueId": 39,
      "location": { "postalCode": "16-680", "name": "Hartford" },
      "pricePerNightInEUR": "672.00",
      "rating": 3,
      "numberOfReviews": 0,
      "capacity": 8,
      "name": "Oh My Papa (O Mein Papa)",
      "albumId": 62,
      "description": "Patior eius laboriosam. Vallum suffoco ascit tyrannus surculus argentum undique.",
      "features": {
        "generalAmenities": [
          "fitness center",
          "outdoor music",
          "garden",
          "pool",
          "jacuzzi",
          "24h reception",
          "WiFi",
          "karaoke",
          "library",
          "indoor music",
          "parking",
          "restaurant",
          "bar"
        ],
        "roomAmenities": [
          "safe",
          "TV",
          "bathroom facilities",
          "hypoallergic bedding",
          "kitchen facilities"
        ],
        "neighbourhoods": [
          "national park",
          "zoo",
          "sea",
          "theatre",
          "mall",
          "forest"
        ],
        "handicapAccesibility": ["blind friendly"]
      },
      "sleepingDetails": { "maxCapacity": 8, "amountOfBeds": 8 },
      "checkInHour": "12pm",
      "checkOutHour": "10am",
      "distanceFromCityCenterInKM": 25,
      "contactDetails": {
        "phone": "(303) 661-0354 x39956",
        "email": "OhMyPapaOMeinPapa_Hartford@hotmail.com"
      }
    },
    {
      "id": 13841,
      "venueId": 40,
      "location": { "postalCode": "91-556", "name": "Stromanfurt" },
      "pricePerNightInEUR": "556.00",
      "rating": 3.5,
      "numberOfReviews": 9088,
      "capacity": 8,
      "name": "Crazy Little Thing Called Love",
      "albumId": 61,
      "description": "Cado suppono desipio talus voluptatum talis valens xiphias thymum. Atavus corroboro vigilo ambulo decretum averto censura trans curriculum sordeo. Eius iste conscendo tabernus carmen demitto blandior asporto advoco libero. Voluptatibus votum agnosco. Animadverto vitiosus quaerat. Tempus capitulus aequitas turba.",
      "features": {
        "generalAmenities": [
          "outdoor music",
          "24h reception",
          "bar",
          "pool",
          "fitness center",
          "restaurant",
          "garden",
          "playground",
          "WiFi",
          "indoor music",
          "pet friendly",
          "karaoke",
          "library",
          "fireplace",
          "parking"
        ],
        "roomAmenities": [
          "safe",
          "bathroom facilities",
          "hypoallergic bedding",
          "TV"
        ],
        "neighbourhoods": [
          "sea",
          "mountains",
          "theatre",
          "historical monument",
          "restaurant",
          "old town",
          "museum",
          "park",
          "lake",
          "forest",
          "zoo",
          "mall",
          "national park",
          "church"
        ],
        "handicapAccesibility": []
      },
      "sleepingDetails": { "maxCapacity": 8, "amountOfBeds": 6 },
      "checkInHour": "12pm",
      "checkOutHour": "10am",
      "distanceFromCityCenterInKM": 27,
      "contactDetails": {
        "phone": "1-733-937-9823 x075",
        "email": "CrazyLittleThingCalledLove0@gmail.com"
      }
    },
    {
      "id": 19369,
      "venueId": 41,
      "location": { "postalCode": "14-465", "name": "Port Eldaton" },
      "pricePerNightInEUR": "439.00",
      "rating": 4.6,
      "numberOfReviews": 3841,
      "capacity": 10,
      "name": "Pon De Replay",
      "albumId": 60,
      "description": "Arma testimonium ater aiunt numquam truculenter unde. Delego audeo vinum. Careo comprehendo terebro utpote. Vinitor sonitus carpo sortitus rem cruentus concido deleo accendo. Creptio traho demulceo. Adeo utique ago adflicto velum ascisco vitae.",
      "features": {
        "generalAmenities": [
          "WiFi",
          "parking",
          "outdoor music",
          "24h reception",
          "bar",
          "karaoke",
          "library"
        ],
        "roomAmenities": ["hypoallergic bedding"],
        "neighbourhoods": [
          "national park",
          "theatre",
          "park",
          "sea",
          "amusement park",
          "mall",
          "church",
          "museum",
          "old town",
          "lake",
          "forest",
          "restaurant"
        ],
        "handicapAccesibility": []
      },
      "sleepingDetails": { "maxCapacity": 10, "amountOfBeds": 9 },
      "checkInHour": "12pm",
      "checkOutHour": "10am",
      "distanceFromCityCenterInKM": 22,
      "contactDetails": {
        "phone": "957.978.2891",
        "email": "PonDeReplay_PortEldaton53@yahoo.com"
      }
    },
    {
      "id": 6784,
      "venueId": 42,
      "location": { "postalCode": "89-365", "name": "Harrisfort" },
      "pricePerNightInEUR": "765.00",
      "rating": 4.5,
      "numberOfReviews": 8842,
      "capacity": 7,
      "name": "Love Me Do",
      "albumId": 59,
      "description": "Clementia creta coniuratio torrens solus aer usus. Confugo creator theca aetas capillus capio altus conor alias vomica.",
      "features": {
        "generalAmenities": ["karaoke", "indoor music", "fireplace"],
        "roomAmenities": [
          "safe",
          "bathroom facilities",
          "hypoallergic bedding",
          "TV"
        ],
        "neighbourhoods": ["forest", "old town", "national park"],
        "handicapAccesibility": []
      },
      "sleepingDetails": { "maxCapacity": 7, "amountOfBeds": 4 },
      "checkInHour": "12pm",
      "checkOutHour": "10am",
      "distanceFromCityCenterInKM": 19,
      "contactDetails": {
        "phone": "384.502.2241 x17337",
        "email": "LoveMeDo12@gmail.com"
      }
    },
    {
      "id": 6204,
      "venueId": 43,
      "location": { "postalCode": "91-497", "name": "Round Rock" },
      "pricePerNightInEUR": "73.00",
      "rating": 4.9,
      "numberOfReviews": 4507,
      "capacity": 3,
      "name": "Stay (I Missed You)",
      "albumId": 58,
      "description": "Comminor brevis verbum ratione adaugeo. Rerum vetus minus labore tamen ad depromo tamen conduco. Voluptas cicuta similique error accedo coruscus tremo sortitus appono. Demens deripio accendo. Ager denuo stillicidium adduco caveo. Cattus victoria tam audentia damno. Tempora ver numquam solium necessitatibus enim in demoror.",
      "features": {
        "generalAmenities": [
          "restaurant",
          "fireplace",
          "bar",
          "pool",
          "garden",
          "pet friendly",
          "24h reception",
          "jacuzzi",
          "library",
          "outdoor music",
          "WiFi",
          "playground",
          "karaoke",
          "speakers",
          "fitness center"
        ],
        "roomAmenities": [
          "hypoallergic bedding",
          "kitchen facilities",
          "TV",
          "bathroom facilities",
          "safe"
        ],
        "neighbourhoods": [
          "restaurant",
          "church",
          "cinema",
          "historical monument",
          "theatre",
          "mall",
          "park",
          "national park",
          "museum",
          "zoo",
          "forest",
          "mountains",
          "old town",
          "sea",
          "lake",
          "amusement park"
        ],
        "handicapAccesibility": [
          "blind friendly",
          "deaf friendly",
          "short-grown friendly",
          "wheelchair friendly"
        ]
      },
      "sleepingDetails": { "maxCapacity": 3, "amountOfBeds": 2 },
      "checkInHour": "12pm",
      "checkOutHour": "10am",
      "distanceFromCityCenterInKM": 16,
      "contactDetails": {
        "phone": "1-728-841-9587 x67532",
        "email": "StayIMissedYou.RoundRock@gmail.com"
      }
    },
    {
      "id": 8153,
      "venueId": 44,
      "location": { "postalCode": "31-553", "name": "Asabury" },
      "pricePerNightInEUR": "363.00",
      "rating": 1.6,
      "numberOfReviews": 8411,
      "capacity": 5,
      "name": "Faith",
      "albumId": 57,
      "description": "Constans ut argentum excepturi angelus via suasoria. Thermae demonstro una comptus curis accedo coepi. Adversus curvo somniculosus clementia degenero creator alter. Contego nobis cedo textilis usque comptus agnitio. Decretum adinventitias tunc blandior depromo coniecto. Admoneo color aurum solitudo atque viridis adiuvo. Alo sufficio comburo assentator adsuesco claustrum.",
      "features": {
        "generalAmenities": [
          "fireplace",
          "karaoke",
          "fitness center",
          "restaurant",
          "jacuzzi",
          "library"
        ],
        "roomAmenities": ["kitchen facilities"],
        "neighbourhoods": [
          "historical monument",
          "national park",
          "old town",
          "zoo",
          "lake",
          "sea",
          "museum",
          "park",
          "forest",
          "theatre"
        ],
        "handicapAccesibility": [
          "deaf friendly",
          "blind friendly",
          "short-grown friendly"
        ]
      },
      "sleepingDetails": { "maxCapacity": 5, "amountOfBeds": 4 },
      "checkInHour": "12pm",
      "checkOutHour": "10am",
      "distanceFromCityCenterInKM": 30,
      "contactDetails": {
        "phone": "1-247-321-1395 x064",
        "email": "Faith84@gmail.com"
      }
    },
    {
      "id": 14455,
      "venueId": 45,
      "location": { "postalCode": "30-879", "name": "South Jo" },
      "pricePerNightInEUR": "427.00",
      "rating": 2.5,
      "numberOfReviews": 7574,
      "capacity": 3,
      "name": "Personality",
      "albumId": 56,
      "description": "Sponte facere adeptio amicitia vae totidem villa tabgo. Itaque maiores audio arx. Tener vulticulus porro colligo in tenax quae spargo.",
      "features": {
        "generalAmenities": ["garden", "WiFi", "fitness center", "speakers"],
        "roomAmenities": ["bathroom facilities", "hypoallergic bedding"],
        "neighbourhoods": [
          "old town",
          "theatre",
          "museum",
          "park",
          "cinema",
          "mountains",
          "mall",
          "amusement park"
        ],
        "handicapAccesibility": ["deaf friendly"]
      },
      "sleepingDetails": { "maxCapacity": 3, "amountOfBeds": 3 },
      "checkInHour": "12pm",
      "checkOutHour": "10am",
      "distanceFromCityCenterInKM": 11,
      "contactDetails": {
        "phone": "(710) 361-6939 x7456",
        "email": "Personality4@yahoo.com"
      }
    },
    {
      "id": 11923,
      "venueId": 46,
      "location": { "postalCode": "74-893", "name": "Dundalk" },
      "pricePerNightInEUR": "691.00",
      "rating": 1.7,
      "numberOfReviews": 9676,
      "capacity": 10,
      "name": "This Ole House",
      "albumId": 55,
      "description": "Contego animus minima tendo celo. Apostolus vilis substantia cumque quam adiuvo ipsam tui. Commemoro angustus approbo cerno. Supplanto tantillus delego. Vomito audeo cupio aegrotatio. Coadunatio cresco comprehendo appello in cuius demo debitis victus vitium.",
      "features": {
        "generalAmenities": [
          "fitness center",
          "indoor music",
          "library",
          "fireplace",
          "WiFi",
          "playground",
          "jacuzzi",
          "garden",
          "pet friendly",
          "bar",
          "24h reception",
          "pool",
          "speakers",
          "karaoke",
          "restaurant",
          "parking"
        ],
        "roomAmenities": [
          "safe",
          "hypoallergic bedding",
          "kitchen facilities",
          "bathroom facilities"
        ],
        "neighbourhoods": [
          "forest",
          "museum",
          "zoo",
          "cinema",
          "historical monument",
          "amusement park",
          "church",
          "restaurant",
          "old town",
          "mountains",
          "theatre",
          "sea"
        ],
        "handicapAccesibility": []
      },
      "sleepingDetails": { "maxCapacity": 10, "amountOfBeds": 10 },
      "checkInHour": "12pm",
      "checkOutHour": "10am",
      "distanceFromCityCenterInKM": 15,
      "contactDetails": {
        "phone": "494-573-1628 x11722",
        "email": "ThisOleHouse63@hotmail.com"
      }
    },
    {
      "id": 5432,
      "venueId": 47,
      "location": { "postalCode": "42-080", "name": "Koelpinview" },
      "pricePerNightInEUR": "61.00",
      "rating": 1.7,
      "numberOfReviews": 3261,
      "capacity": 5,
      "name": "Afternoon Delight",
      "albumId": 54,
      "description": "Traho sursum dolore apparatus. Tergeo victoria vicissitudo stips perspiciatis acquiro demergo catena.",
      "features": {
        "generalAmenities": [
          "fitness center",
          "WiFi",
          "speakers",
          "indoor music",
          "bar"
        ],
        "roomAmenities": [
          "safe",
          "kitchen facilities",
          "bathroom facilities",
          "hypoallergic bedding",
          "TV"
        ],
        "neighbourhoods": [
          "national park",
          "lake",
          "mountains",
          "forest",
          "theatre",
          "restaurant"
        ],
        "handicapAccesibility": [
          "deaf friendly",
          "blind friendly",
          "wheelchair friendly"
        ]
      },
      "sleepingDetails": { "maxCapacity": 5, "amountOfBeds": 5 },
      "checkInHour": "12pm",
      "checkOutHour": "10am",
      "distanceFromCityCenterInKM": 14,
      "contactDetails": {
        "phone": "342.470.5730 x02054",
        "email": "AfternoonDelight_Koelpinview58@hotmail.com"
      }
    },
    {
      "id": 4811,
      "venueId": 48,
      "location": { "postalCode": "72-684", "name": "Beahancester" },
      "pricePerNightInEUR": "584.00",
      "rating": 4.6,
      "numberOfReviews": 5394,
      "capacity": 11,
      "name": "Frankenstein",
      "albumId": 53,
      "description": "Conicio abduco coruscus defleo. Auctor careo derelinquo tabesco reprehenderit sumptus cruentus concido aranea. Nisi adeo arbor careo.",
      "features": {
        "generalAmenities": [
          "fitness center",
          "speakers",
          "garden",
          "karaoke",
          "pool",
          "jacuzzi",
          "restaurant",
          "24h reception"
        ],
        "roomAmenities": [
          "bathroom facilities",
          "hypoallergic bedding",
          "kitchen facilities",
          "TV",
          "safe"
        ],
        "neighbourhoods": [
          "sea",
          "mountains",
          "historical monument",
          "lake",
          "old town",
          "mall",
          "theatre",
          "amusement park",
          "museum",
          "national park",
          "cinema",
          "zoo",
          "church",
          "forest",
          "restaurant",
          "park"
        ],
        "handicapAccesibility": [
          "short-grown friendly",
          "deaf friendly",
          "wheelchair friendly"
        ]
      },
      "sleepingDetails": { "maxCapacity": 11, "amountOfBeds": 11 },
      "checkInHour": "12pm",
      "checkOutHour": "10am",
      "distanceFromCityCenterInKM": 22,
      "contactDetails": {
        "phone": "(330) 344-3944 x21317",
        "email": "Frankenstein49@yahoo.com"
      }
    },
    {
      "id": 13798,
      "venueId": 49,
      "location": { "postalCode": "12-098", "name": "Adrielborough" },
      "pricePerNightInEUR": "620.00",
      "rating": 3.3,
      "numberOfReviews": 9300,
      "capacity": 8,
      "name": "(Your Love Keeps Lifting Me) Higher & Higher",
      "albumId": 52,
      "description": "Triduana patrocinor acsi deputo valde candidus comes. Aliqua cernuus facilis villa calcar compello architecto bos sollicito rerum. Cuppedia correptius sonitus. Exercitationem utroque causa apostolus caveo. Curriculum tempore crustulum deserunt pariatur caries sum.",
      "features": {
        "generalAmenities": [
          "playground",
          "jacuzzi",
          "karaoke",
          "24h reception",
          "speakers",
          "WiFi",
          "parking"
        ],
        "roomAmenities": [
          "bathroom facilities",
          "safe",
          "TV",
          "kitchen facilities"
        ],
        "neighbourhoods": ["forest", "church", "lake"],
        "handicapAccesibility": [
          "wheelchair friendly",
          "deaf friendly",
          "blind friendly"
        ]
      },
      "sleepingDetails": { "maxCapacity": 8, "amountOfBeds": 8 },
      "checkInHour": "12pm",
      "checkOutHour": "10am",
      "distanceFromCityCenterInKM": 15,
      "contactDetails": {
        "phone": "217.662.8087 x603",
        "email": "YourLoveKeepsLiftingMeHigherHigher_Adrielborough48@gmail.com"
      }
    },
    {
      "id": 15568,
      "venueId": 50,
      "location": { "postalCode": "88-742", "name": "Haskellhaven" },
      "pricePerNightInEUR": "969.00",
      "rating": 3,
      "numberOfReviews": 9256,
      "capacity": 2,
      "name": "We Are Family",
      "albumId": 51,
      "description": "Audacia tabernus victus vesco triumphus armarium apostolus conspergo. Verto acidus sumo verto vos desino bene uberrime. Adeptio adstringo civis vix cervus degenero aveho colligo temeritas deludo. Patior delectatio totam sono caveo expedita. Tenax decipio curriculum sufficio adicio tres.",
      "features": {
        "generalAmenities": [
          "bar",
          "fireplace",
          "fitness center",
          "jacuzzi",
          "library",
          "garden",
          "parking",
          "indoor music",
          "outdoor music"
        ],
        "roomAmenities": ["safe"],
        "neighbourhoods": [
          "forest",
          "cinema",
          "amusement park",
          "theatre",
          "zoo",
          "national park",
          "lake",
          "old town",
          "mountains",
          "museum",
          "park"
        ],
        "handicapAccesibility": [
          "deaf friendly",
          "blind friendly",
          "short-grown friendly",
          "wheelchair friendly"
        ]
      },
      "sleepingDetails": { "maxCapacity": 2, "amountOfBeds": 2 },
      "checkInHour": "12pm",
      "checkOutHour": "10am",
      "distanceFromCityCenterInKM": 30,
      "contactDetails": {
        "phone": "(409) 337-9080 x61091",
        "email": "WeAreFamily_Haskellhaven@hotmail.com"
      }
    },
    {
      "id": 1081,
      "venueId": 51,
      "location": { "postalCode": "88-819", "name": "Fond du Lac" },
      "pricePerNightInEUR": "856.00",
      "rating": 4,
      "numberOfReviews": 5684,
      "capacity": 2,
      "name": "You've Got a Friend",
      "albumId": 50,
      "description": "Contego creta socius cunae. Cupiditas audeo aspernatur quia tres. Tenetur culpo aequus casus supellex studio carbo defetiscor vigilo. Depromo cognatus cado vulnero curtus aetas vereor aperio. Agnosco deorsum capto custodia vilicus hic numquam. Tyrannus vita solitudo ait ulciscor vulnus cavus quod benigne ipsa. Itaque crepusculum acquiro combibo tener administratio canto.",
      "features": {
        "generalAmenities": [
          "fireplace",
          "pet friendly",
          "pool",
          "bar",
          "karaoke",
          "playground",
          "speakers",
          "garden",
          "24h reception",
          "outdoor music"
        ],
        "roomAmenities": ["kitchen facilities", "hypoallergic bedding"],
        "neighbourhoods": ["old town", "theatre", "museum"],
        "handicapAccesibility": ["blind friendly", "wheelchair friendly"]
      },
      "sleepingDetails": { "maxCapacity": 2, "amountOfBeds": 2 },
      "checkInHour": "12pm",
      "checkOutHour": "10am",
      "distanceFromCityCenterInKM": 27,
      "contactDetails": {
        "phone": "882-219-6377 x28198",
        "email": "YouveGotaFriend_FondduLac@gmail.com"
      }
    },
    {
      "id": 9991,
      "venueId": 52,
      "location": { "postalCode": "21-776", "name": "Timmycester" },
      "pricePerNightInEUR": "278.00",
      "rating": 2.8,
      "numberOfReviews": 2098,
      "capacity": 3,
      "name": "Stronger",
      "albumId": 49,
      "description": "Arcesso demulceo suus nisi. Statua abbas tolero. Bis synagoga ars theca ver. Patria carmen capitulus cunctatio asperiores pecus tego pecto cubitum. Ratione cruciamentum speciosus desipio summa subvenio concedo strues vae. Volva aggredior infit theologus coniecto aduro voluptatum astrum.",
      "features": {
        "generalAmenities": ["fitness center", "24h reception", "playground"],
        "roomAmenities": ["kitchen facilities", "hypoallergic bedding"],
        "neighbourhoods": [
          "park",
          "lake",
          "forest",
          "mall",
          "national park",
          "church",
          "sea",
          "zoo",
          "theatre"
        ],
        "handicapAccesibility": ["wheelchair friendly", "short-grown friendly"]
      },
      "sleepingDetails": { "maxCapacity": 3, "amountOfBeds": 3 },
      "checkInHour": "12pm",
      "checkOutHour": "10am",
      "distanceFromCityCenterInKM": 16,
      "contactDetails": {
        "phone": "(836) 576-9026 x487",
        "email": "Stronger.Timmycester76@gmail.com"
      }
    },
    {
      "id": 11893,
      "venueId": 53,
      "location": { "postalCode": "34-005", "name": "O'Konside" },
      "pricePerNightInEUR": "864.00",
      "rating": 1.9,
      "numberOfReviews": 4865,
      "capacity": 10,
      "name": "Hound Dog",
      "albumId": 48,
      "description": "Carus trans occaecati deorsum toties censura. Vulnus alii ventosus nostrum vulgivagus temporibus spectaculum clam. Vomica dedecor enim. Provident tamen speciosus sint curtus. Custodia venio pel id admoveo.",
      "features": {
        "generalAmenities": [
          "library",
          "fitness center",
          "outdoor music",
          "pool",
          "garden",
          "WiFi",
          "speakers",
          "24h reception"
        ],
        "roomAmenities": [
          "kitchen facilities",
          "bathroom facilities",
          "hypoallergic bedding"
        ],
        "neighbourhoods": [
          "national park",
          "park",
          "historical monument",
          "amusement park",
          "zoo",
          "restaurant",
          "forest",
          "mountains",
          "theatre",
          "church",
          "mall",
          "lake"
        ],
        "handicapAccesibility": []
      },
      "sleepingDetails": { "maxCapacity": 10, "amountOfBeds": 6 },
      "checkInHour": "12pm",
      "checkOutHour": "10am",
      "distanceFromCityCenterInKM": 25,
      "contactDetails": {
        "phone": "276.333.0797",
        "email": "HoundDog_OKonside@yahoo.com"
      }
    },
    {
      "id": 15978,
      "venueId": 54,
      "location": { "postalCode": "01-843", "name": "Palm Beach Gardens" },
      "pricePerNightInEUR": "646.00",
      "rating": 4.8,
      "numberOfReviews": 2242,
      "capacity": 9,
      "name": "Kiss On My List",
      "albumId": 47,
      "description": "Tempora centum cunae textus. Accusamus animadverto torqueo compono. Contigo expedita tenuis tristis aestivus voveo suffoco calcar. Auditor universe vivo video.",
      "features": {
        "generalAmenities": [
          "parking",
          "fireplace",
          "playground",
          "restaurant",
          "fitness center",
          "garden",
          "library",
          "karaoke",
          "WiFi",
          "jacuzzi",
          "pet friendly",
          "24h reception",
          "indoor music",
          "speakers",
          "bar",
          "outdoor music",
          "pool"
        ],
        "roomAmenities": ["safe"],
        "neighbourhoods": [
          "historical monument",
          "mall",
          "mountains",
          "amusement park",
          "lake"
        ],
        "handicapAccesibility": []
      },
      "sleepingDetails": { "maxCapacity": 9, "amountOfBeds": 9 },
      "checkInHour": "12pm",
      "checkOutHour": "10am",
      "distanceFromCityCenterInKM": 4,
      "contactDetails": {
        "phone": "(671) 627-0549 x568",
        "email": "KissOnMyList`PalmBeachGardens@hotmail.com"
      }
    },
    {
      "id": 12351,
      "venueId": 55,
      "location": { "postalCode": "49-910", "name": "Hilllbury" },
      "pricePerNightInEUR": "92.00",
      "rating": 4.1,
      "numberOfReviews": 7052,
      "capacity": 8,
      "name": "Party Rock Anthem",
      "albumId": 46,
      "description": "Usque voluptatibus decipio decet aurum corpus. Hic absens spoliatio. Adstringo caveo quod libero qui cupio. Tenuis laudantium vorax. Comis utrimque hic tantillus defungo. Aeneus aro vobis clam tot earum.",
      "features": {
        "generalAmenities": [
          "parking",
          "indoor music",
          "library",
          "restaurant",
          "pet friendly",
          "fitness center",
          "jacuzzi",
          "fireplace",
          "pool",
          "24h reception",
          "outdoor music",
          "karaoke",
          "garden",
          "bar",
          "playground",
          "speakers"
        ],
        "roomAmenities": [
          "TV",
          "hypoallergic bedding",
          "kitchen facilities",
          "safe"
        ],
        "neighbourhoods": [
          "historical monument",
          "old town",
          "restaurant",
          "church",
          "zoo",
          "forest"
        ],
        "handicapAccesibility": [
          "blind friendly",
          "deaf friendly",
          "wheelchair friendly"
        ]
      },
      "sleepingDetails": { "maxCapacity": 8, "amountOfBeds": 8 },
      "checkInHour": "12pm",
      "checkOutHour": "10am",
      "distanceFromCityCenterInKM": 17,
      "contactDetails": {
        "phone": "1-873-547-3507 x385",
        "email": "PartyRockAnthem_Hilllbury4@gmail.com"
      }
    },
    {
      "id": 1293,
      "venueId": 56,
      "location": { "postalCode": "64-312", "name": "Port Teresa" },
      "pricePerNightInEUR": "329.00",
      "rating": 1.7,
      "numberOfReviews": 4922,
      "capacity": 11,
      "name": "I Got You Babe",
      "albumId": 45,
      "description": "Veniam culpa voluptatum cupiditas. Quidem vicinus cum cuius ullam vaco crapula cunae ago. Infit viduo quibusdam peior alter venio confero velut defluo credo. Aliquid conqueror ultra tenus xiphias. Voco stella colligo alo turbo aqua deorsum. Stabilis villa capio beatus teres cito cogo cedo aegrus compono. Demum aequitas crur utpote decimus terreo compono demum cena cupressus.",
      "features": {
        "generalAmenities": [
          "24h reception",
          "outdoor music",
          "restaurant",
          "karaoke",
          "pet friendly"
        ],
        "roomAmenities": ["TV"],
        "neighbourhoods": [
          "amusement park",
          "cinema",
          "national park",
          "sea",
          "lake",
          "museum",
          "zoo",
          "old town",
          "theatre",
          "park",
          "church",
          "mountains",
          "forest",
          "mall"
        ],
        "handicapAccesibility": ["wheelchair friendly", "short-grown friendly"]
      },
      "sleepingDetails": { "maxCapacity": 11, "amountOfBeds": 11 },
      "checkInHour": "12pm",
      "checkOutHour": "10am",
      "distanceFromCityCenterInKM": 1,
      "contactDetails": {
        "phone": "890-675-0877 x48297",
        "email": "IGotYouBabe_PortTeresa78@gmail.com"
      }
    },
    {
      "id": 10948,
      "venueId": 57,
      "location": { "postalCode": "50-485", "name": "Monroe" },
      "pricePerNightInEUR": "868.00",
      "rating": 3.5,
      "numberOfReviews": 4406,
      "capacity": 8,
      "name": "Thriller",
      "albumId": 44,
      "description": "Spoliatio stips laboriosam utique ex ut tepesco provident vobis tonsor. Demonstro vorago dolor sponte voluptatum studio. Aperio aro quis dapifer valetudo adduco deorsum fuga comburo adicio. Clamo soluta ustulo decor ubi.",
      "features": {
        "generalAmenities": [
          "pet friendly",
          "restaurant",
          "library",
          "outdoor music",
          "playground"
        ],
        "roomAmenities": [
          "TV",
          "hypoallergic bedding",
          "safe",
          "kitchen facilities"
        ],
        "neighbourhoods": [
          "mall",
          "park",
          "national park",
          "theatre",
          "amusement park",
          "church",
          "sea",
          "historical monument",
          "lake",
          "cinema",
          "zoo",
          "mountains",
          "forest",
          "museum",
          "old town"
        ],
        "handicapAccesibility": [
          "short-grown friendly",
          "deaf friendly",
          "wheelchair friendly"
        ]
      },
      "sleepingDetails": { "maxCapacity": 8, "amountOfBeds": 6 },
      "checkInHour": "12pm",
      "checkOutHour": "10am",
      "distanceFromCityCenterInKM": 17,
      "contactDetails": {
        "phone": "(741) 420-8495 x532",
        "email": "Thriller%Monroe93@yahoo.com"
      }
    },
    {
      "id": 4244,
      "venueId": 58,
      "location": { "postalCode": "14-746", "name": "Larsoncester" },
      "pricePerNightInEUR": "63.00",
      "rating": 2.9,
      "numberOfReviews": 6503,
      "capacity": 12,
      "name": "Lonely Boy",
      "albumId": 43,
      "description": "Sordeo iste claro placeat vetus asper perspiciatis baiulus admitto. Verbera contego bos aperio decet bellum quis concedo volutabrum culpa. Cunabula desino culpo. Absconditus denuncio deleniti deleniti ab. Maiores adaugeo ipsam volaticus est confugo clibanus. Tabesco vero amissio optio nisi.",
      "features": {
        "generalAmenities": [
          "24h reception",
          "pool",
          "pet friendly",
          "speakers",
          "playground",
          "karaoke",
          "restaurant",
          "indoor music",
          "parking",
          "library",
          "outdoor music",
          "jacuzzi",
          "garden",
          "WiFi",
          "fireplace"
        ],
        "roomAmenities": ["hypoallergic bedding", "bathroom facilities"],
        "neighbourhoods": [
          "zoo",
          "museum",
          "mall",
          "old town",
          "cinema",
          "historical monument",
          "amusement park",
          "church",
          "lake",
          "national park"
        ],
        "handicapAccesibility": [
          "short-grown friendly",
          "deaf friendly",
          "blind friendly"
        ]
      },
      "sleepingDetails": { "maxCapacity": 12, "amountOfBeds": 6 },
      "checkInHour": "12pm",
      "checkOutHour": "10am",
      "distanceFromCityCenterInKM": 2,
      "contactDetails": {
        "phone": "629-416-1671 x360",
        "email": "LonelyBoy61@gmail.com"
      }
    },
    {
      "id": 6643,
      "venueId": 59,
      "location": { "postalCode": "73-131", "name": "Lake Ardenside" },
      "pricePerNightInEUR": "834.00",
      "rating": 3.8,
      "numberOfReviews": 2146,
      "capacity": 6,
      "name": "On the Atchison",
      "albumId": 42,
      "description": "Appositus utor triduana acsi. Comprehendo delectus solio aequitas velum ater sum. Alter vere sint tricesimus aeternus. Curis pecus tamisium complectus cogito dedecor cogo delego. Vir usus sono decimus odit supplanto varietas cupiditate. Corrumpo conculco stillicidium ustulo coruscus. Amiculum cariosus suadeo explicabo alii peior peior reiciendis ater.",
      "features": {
        "generalAmenities": [
          "indoor music",
          "garden",
          "24h reception",
          "library"
        ],
        "roomAmenities": [
          "kitchen facilities",
          "bathroom facilities",
          "safe",
          "TV",
          "hypoallergic bedding"
        ],
        "neighbourhoods": [
          "old town",
          "park",
          "forest",
          "restaurant",
          "mountains",
          "national park",
          "museum",
          "lake",
          "amusement park",
          "mall",
          "theatre",
          "cinema",
          "historical monument",
          "sea",
          "zoo",
          "church"
        ],
        "handicapAccesibility": ["short-grown friendly", "deaf friendly"]
      },
      "sleepingDetails": { "maxCapacity": 6, "amountOfBeds": 6 },
      "checkInHour": "12pm",
      "checkOutHour": "10am",
      "distanceFromCityCenterInKM": 8,
      "contactDetails": {
        "phone": "(652) 513-1341 x1457",
        "email": "OntheAtchison32@gmail.com"
      }
    },
    {
      "id": 4907,
      "venueId": 60,
      "location": { "postalCode": "46-443", "name": "Tremayneport" },
      "pricePerNightInEUR": "847.00",
      "rating": 1.3,
      "numberOfReviews": 6147,
      "capacity": 4,
      "name": "Tammy",
      "albumId": 41,
      "description": "Defendo virga versus expedita. Demonstro infit arcus decipio aspicio necessitatibus. Crepusculum terminatio libero. Totus adaugeo accusator sulum.",
      "features": {
        "generalAmenities": [
          "fireplace",
          "karaoke",
          "playground",
          "24h reception",
          "parking",
          "bar",
          "speakers",
          "fitness center",
          "outdoor music",
          "pool",
          "garden",
          "library",
          "WiFi",
          "pet friendly",
          "indoor music",
          "jacuzzi",
          "restaurant"
        ],
        "roomAmenities": [
          "bathroom facilities",
          "kitchen facilities",
          "safe",
          "TV",
          "hypoallergic bedding"
        ],
        "neighbourhoods": [
          "amusement park",
          "cinema",
          "national park",
          "church",
          "museum",
          "old town",
          "sea",
          "park",
          "lake",
          "theatre",
          "restaurant",
          "zoo",
          "mountains",
          "mall"
        ],
        "handicapAccesibility": ["wheelchair friendly", "short-grown friendly"]
      },
      "sleepingDetails": { "maxCapacity": 4, "amountOfBeds": 4 },
      "checkInHour": "12pm",
      "checkOutHour": "10am",
      "distanceFromCityCenterInKM": 18,
      "contactDetails": {
        "phone": "(512) 766-3771",
        "email": "Tammy6@yahoo.com"
      }
    },
    {
      "id": 7103,
      "venueId": 61,
      "location": { "postalCode": "03-278", "name": "Stoltenbergfield" },
      "pricePerNightInEUR": "102.00",
      "rating": 1,
      "numberOfReviews": 9033,
      "capacity": 11,
      "name": "I've Heard That Song Before",
      "albumId": 40,
      "description": "Comedo demo comitatus. Utor cubitum caste umbra. Neque arto patruus vindico praesentium cerno molestias. Centum subiungo maiores decor cenaculum. Tero sequi creber minus comprehendo numquam tamdiu tergo sulum derelinquo. Compello audio soleo subvenio defetiscor censura ciminatio esse volubilis aspernatur. Anser usque varietas laborum sophismata campana copiose subito tutis quibusdam.",
      "features": {
        "generalAmenities": ["24h reception", "fitness center", "indoor music"],
        "roomAmenities": [
          "hypoallergic bedding",
          "safe",
          "bathroom facilities"
        ],
        "neighbourhoods": [
          "theatre",
          "lake",
          "forest",
          "sea",
          "restaurant",
          "cinema",
          "zoo",
          "museum",
          "church",
          "old town",
          "amusement park",
          "historical monument",
          "park"
        ],
        "handicapAccesibility": []
      },
      "sleepingDetails": { "maxCapacity": 11, "amountOfBeds": 7 },
      "checkInHour": "12pm",
      "checkOutHour": "10am",
      "distanceFromCityCenterInKM": 12,
      "contactDetails": {
        "phone": "398.972.1449 x7083",
        "email": "IveHeardThatSongBefore.Stoltenbergfield@yahoo.com"
      }
    },
    {
      "id": 17903,
      "venueId": 62,
      "location": { "postalCode": "41-925", "name": "Ondrickaworth" },
      "pricePerNightInEUR": "851.00",
      "rating": 4.5,
      "numberOfReviews": 4567,
      "capacity": 11,
      "name": "Ole Buttermilk Sky",
      "albumId": 39,
      "description": "Solus considero suggero ullam statim cariosus curia verumtamen desparatus. Usque tantum tubineus statua.",
      "features": {
        "generalAmenities": [
          "jacuzzi",
          "fireplace",
          "restaurant",
          "bar",
          "library",
          "playground"
        ],
        "roomAmenities": [
          "hypoallergic bedding",
          "safe",
          "bathroom facilities"
        ],
        "neighbourhoods": ["theatre", "church", "national park", "mall"],
        "handicapAccesibility": [
          "short-grown friendly",
          "wheelchair friendly",
          "blind friendly"
        ]
      },
      "sleepingDetails": { "maxCapacity": 11, "amountOfBeds": 7 },
      "checkInHour": "12pm",
      "checkOutHour": "10am",
      "distanceFromCityCenterInKM": 15,
      "contactDetails": {
        "phone": "(852) 390-3883",
        "email": "OleButtermilkSky.Ondrickaworth@gmail.com"
      }
    },
    {
      "id": 17814,
      "venueId": 63,
      "location": { "postalCode": "53-832", "name": "Eugeniashire" },
      "pricePerNightInEUR": "448.00",
      "rating": 4.4,
      "numberOfReviews": 5113,
      "capacity": 5,
      "name": "Freak Me",
      "albumId": 38,
      "description": "Pax suscipio mollitia sursum abundans catena crastinus curiositas contra synagoga. Decretum ante debilito iste stillicidium paulatim unus ambulo.",
      "features": {
        "generalAmenities": ["playground", "fireplace", "karaoke", "garden"],
        "roomAmenities": [
          "safe",
          "kitchen facilities",
          "hypoallergic bedding",
          "TV",
          "bathroom facilities"
        ],
        "neighbourhoods": ["lake", "old town", "national park", "park"],
        "handicapAccesibility": ["blind friendly"]
      },
      "sleepingDetails": { "maxCapacity": 5, "amountOfBeds": 3 },
      "checkInHour": "12pm",
      "checkOutHour": "10am",
      "distanceFromCityCenterInKM": 6,
      "contactDetails": {
        "phone": "661-710-4969 x0034",
        "email": "FreakMe.Eugeniashire@gmail.com"
      }
    },
    {
      "id": 19645,
      "venueId": 64,
      "location": { "postalCode": "70-698", "name": "Irving" },
      "pricePerNightInEUR": "289.00",
      "rating": 1.1,
      "numberOfReviews": 1241,
      "capacity": 8,
      "name": "Chain of Fools",
      "albumId": 37,
      "description": "Consequuntur civitas doloribus virga delinquo aspicio abduco. Ulterius aperiam curia verto ratione sophismata clementia. Damno auxilium cur votum. Crinis strenuus taedium veritatis comparo tutamen eveniet.",
      "features": {
        "generalAmenities": [
          "jacuzzi",
          "pet friendly",
          "outdoor music",
          "fitness center",
          "speakers",
          "24h reception",
          "fireplace",
          "indoor music",
          "playground",
          "bar",
          "karaoke",
          "restaurant",
          "WiFi",
          "parking",
          "library",
          "pool"
        ],
        "roomAmenities": ["kitchen facilities", "TV"],
        "neighbourhoods": [
          "old town",
          "sea",
          "restaurant",
          "church",
          "forest",
          "zoo",
          "cinema",
          "mountains",
          "museum",
          "lake",
          "mall",
          "park",
          "theatre",
          "national park"
        ],
        "handicapAccesibility": ["wheelchair friendly"]
      },
      "sleepingDetails": { "maxCapacity": 8, "amountOfBeds": 7 },
      "checkInHour": "12pm",
      "checkOutHour": "10am",
      "distanceFromCityCenterInKM": 14,
      "contactDetails": {
        "phone": "291.690.4082",
        "email": "ChainofFools+Irving@yahoo.com"
      }
    },
    {
      "id": 12268,
      "venueId": 65,
      "location": { "postalCode": "21-006", "name": "Fort Durward" },
      "pricePerNightInEUR": "736.00",
      "rating": 4.4,
      "numberOfReviews": 5660,
      "capacity": 6,
      "name": "I Got You Babe",
      "albumId": 36,
      "description": "Canonicus ustulo autem bellum coma venio copiose decet. Ulterius sol vis ab. Absconditus curatio venio comitatus. Ipsum deludo amaritudo.",
      "features": {
        "generalAmenities": [
          "playground",
          "parking",
          "jacuzzi",
          "fireplace",
          "outdoor music",
          "garden"
        ],
        "roomAmenities": ["kitchen facilities"],
        "neighbourhoods": [
          "cinema",
          "sea",
          "mall",
          "theatre",
          "amusement park",
          "museum"
        ],
        "handicapAccesibility": ["short-grown friendly"]
      },
      "sleepingDetails": { "maxCapacity": 6, "amountOfBeds": 4 },
      "checkInHour": "12pm",
      "checkOutHour": "10am",
      "distanceFromCityCenterInKM": 19,
      "contactDetails": {
        "phone": "449.952.5224 x41006",
        "email": "IGotYouBabe21@hotmail.com"
      }
    },
    {
      "id": 10125,
      "venueId": 66,
      "location": { "postalCode": "33-047", "name": "Port Josiah" },
      "pricePerNightInEUR": "730.00",
      "rating": 1.6,
      "numberOfReviews": 1895,
      "capacity": 5,
      "name": "Dreams",
      "albumId": 35,
      "description": "Sub sponte tyrannus acervus suffragium convoco. Nostrum tergiversatio textilis ducimus ulterius adeptio.",
      "features": {
        "generalAmenities": [
          "outdoor music",
          "speakers",
          "pet friendly",
          "indoor music",
          "fitness center"
        ],
        "roomAmenities": [
          "bathroom facilities",
          "kitchen facilities",
          "safe",
          "TV"
        ],
        "neighbourhoods": [
          "old town",
          "lake",
          "church",
          "historical monument",
          "mountains",
          "zoo",
          "sea"
        ],
        "handicapAccesibility": []
      },
      "sleepingDetails": { "maxCapacity": 5, "amountOfBeds": 4 },
      "checkInHour": "12pm",
      "checkOutHour": "10am",
      "distanceFromCityCenterInKM": 10,
      "contactDetails": {
        "phone": "252.908.5573",
        "email": "Dreams.PortJosiah@hotmail.com"
      }
    },
    {
      "id": 4232,
      "venueId": 67,
      "location": { "postalCode": "12-368", "name": "Boscotown" },
      "pricePerNightInEUR": "494.00",
      "rating": 1.8,
      "numberOfReviews": 8964,
      "capacity": 1,
      "name": "Check On It",
      "albumId": 34,
      "description": "Comitatus sortitus magni aufero crastinus. Desidero nobis curso curriculum nostrum adaugeo vulnero tersus sursum. Virgo cunabula denique capitulus virtus sponte. Victus pauper facilis constans abutor abeo aeger trucido caelestis convoco. Aestus despecto deorsum certe adimpleo canonicus. Ambulo sunt via cruentus aedificium defessus. Degusto quaerat decumbo averto verto cunctatio cogo complectus defleo denego.",
      "features": {
        "generalAmenities": [
          "bar",
          "pool",
          "playground",
          "karaoke",
          "WiFi",
          "fitness center",
          "jacuzzi",
          "restaurant",
          "library",
          "pet friendly",
          "garden",
          "parking"
        ],
        "roomAmenities": [
          "safe",
          "kitchen facilities",
          "hypoallergic bedding",
          "TV",
          "bathroom facilities"
        ],
        "neighbourhoods": [
          "theatre",
          "mall",
          "forest",
          "museum",
          "amusement park",
          "mountains",
          "cinema",
          "zoo",
          "park",
          "national park",
          "church",
          "historical monument",
          "old town"
        ],
        "handicapAccesibility": ["blind friendly", "deaf friendly"]
      },
      "sleepingDetails": { "maxCapacity": 1, "amountOfBeds": 1 },
      "checkInHour": "12pm",
      "checkOutHour": "10am",
      "distanceFromCityCenterInKM": 28,
      "contactDetails": {
        "phone": "(974) 510-9613",
        "email": "CheckOnIt24@gmail.com"
      }
    },
    {
      "id": 16886,
      "venueId": 68,
      "location": { "postalCode": "27-329", "name": "Mosciskichester" },
      "pricePerNightInEUR": "357.00",
      "rating": 5,
      "numberOfReviews": 3518,
      "capacity": 7,
      "name": "Buttons & Bows",
      "albumId": 33,
      "description": "Vilis depono pecco adfero subseco tabella illo. Modi unde adsuesco libero umbra spes distinctio. Comitatus succurro cado cedo titulus umquam terra summopere iusto solio. Attollo uterque deduco adeptio umquam correptius solvo dolor. Cum vergo aqua vado vomito despecto. Abutor aestas deripio patrocinor patria ea validus impedit. Cometes delinquo earum volup minus ante cenaculum sub amaritudo distinctio.",
      "features": {
        "generalAmenities": [
          "indoor music",
          "karaoke",
          "24h reception",
          "speakers",
          "outdoor music"
        ],
        "roomAmenities": ["bathroom facilities", "TV"],
        "neighbourhoods": [
          "theatre",
          "restaurant",
          "zoo",
          "museum",
          "amusement park",
          "old town",
          "mountains",
          "lake",
          "mall",
          "park",
          "church",
          "national park",
          "cinema",
          "sea",
          "forest"
        ],
        "handicapAccesibility": ["wheelchair friendly", "short-grown friendly"]
      },
      "sleepingDetails": { "maxCapacity": 7, "amountOfBeds": 5 },
      "checkInHour": "12pm",
      "checkOutHour": "10am",
      "distanceFromCityCenterInKM": 27,
      "contactDetails": {
        "phone": "533-436-7442 x43145",
        "email": "ButtonsBows$Mosciskichester33@gmail.com"
      }
    },
    {
      "id": 17751,
      "venueId": 69,
      "location": { "postalCode": "13-982", "name": "Toledo" },
      "pricePerNightInEUR": "573.00",
      "rating": 2.4,
      "numberOfReviews": 3251,
      "capacity": 4,
      "name": "You're Still the One",
      "albumId": 32,
      "description": "Tutamen demonstro caveo truculenter mollitia adinventitias textus abeo odit. Temptatio tabgo aspernatur. Tui vesica viscus bellum supplanto subseco sustineo socius avarus. Apto molestiae natus itaque cado dolorem admiratio nulla abutor.",
      "features": {
        "generalAmenities": [
          "outdoor music",
          "24h reception",
          "playground",
          "parking",
          "fitness center",
          "library",
          "restaurant",
          "indoor music",
          "pet friendly",
          "pool",
          "bar",
          "karaoke",
          "WiFi",
          "speakers"
        ],
        "roomAmenities": [
          "safe",
          "bathroom facilities",
          "TV",
          "hypoallergic bedding",
          "kitchen facilities"
        ],
        "neighbourhoods": [
          "forest",
          "zoo",
          "restaurant",
          "museum",
          "lake",
          "national park",
          "mountains",
          "church",
          "park",
          "mall",
          "sea",
          "amusement park"
        ],
        "handicapAccesibility": [
          "short-grown friendly",
          "deaf friendly",
          "blind friendly"
        ]
      },
      "sleepingDetails": { "maxCapacity": 4, "amountOfBeds": 4 },
      "checkInHour": "12pm",
      "checkOutHour": "10am",
      "distanceFromCityCenterInKM": 2,
      "contactDetails": {
        "phone": "602.209.7754",
        "email": "YoureStilltheOne.Toledo79@gmail.com"
      }
    },
    {
      "id": 12489,
      "venueId": 70,
      "location": { "postalCode": "60-492", "name": "Fort Reymundoburgh" },
      "pricePerNightInEUR": "767.00",
      "rating": 3,
      "numberOfReviews": 9274,
      "capacity": 6,
      "name": "You Make Me Feel Like Dancing",
      "albumId": 31,
      "description": "Spes vox victus candidus illo quia. Cavus amplexus commodo summa casso adflicto suscipit. Tredecim dolor templum sol utilis quasi caterva excepturi aperte. Deputo coepi sustineo tero.",
      "features": {
        "generalAmenities": [
          "indoor music",
          "bar",
          "playground",
          "library",
          "parking",
          "karaoke",
          "pet friendly",
          "WiFi",
          "restaurant",
          "outdoor music",
          "24h reception",
          "fitness center",
          "pool",
          "jacuzzi",
          "fireplace"
        ],
        "roomAmenities": ["hypoallergic bedding", "kitchen facilities"],
        "neighbourhoods": [
          "zoo",
          "park",
          "church",
          "cinema",
          "historical monument",
          "mall"
        ],
        "handicapAccesibility": []
      },
      "sleepingDetails": { "maxCapacity": 6, "amountOfBeds": 3 },
      "checkInHour": "12pm",
      "checkOutHour": "10am",
      "distanceFromCityCenterInKM": 1,
      "contactDetails": {
        "phone": "(786) 330-7641 x828",
        "email": "YouMakeMeFeelLikeDancing_FortReymundoburgh11@yahoo.com"
      }
    },
    {
      "id": 14659,
      "venueId": 71,
      "location": { "postalCode": "39-062", "name": "New Williamport" },
      "pricePerNightInEUR": "26.00",
      "rating": 3.5,
      "numberOfReviews": 7716,
      "capacity": 8,
      "name": "Fame",
      "albumId": 30,
      "description": "Contigo approbo terebro vergo casus. Arca temporibus arguo conitor. Ubi odio inflammatio. Eaque vitiosus decimus. Asperiores ab tremo. Molestiae vado vapulus totidem tersus.",
      "features": {
        "generalAmenities": [
          "fireplace",
          "library",
          "parking",
          "fitness center",
          "restaurant"
        ],
        "roomAmenities": [
          "safe",
          "kitchen facilities",
          "TV",
          "bathroom facilities",
          "hypoallergic bedding"
        ],
        "neighbourhoods": [
          "park",
          "church",
          "national park",
          "forest",
          "mall",
          "mountains",
          "historical monument",
          "theatre"
        ],
        "handicapAccesibility": [
          "deaf friendly",
          "wheelchair friendly",
          "short-grown friendly",
          "blind friendly"
        ]
      },
      "sleepingDetails": { "maxCapacity": 8, "amountOfBeds": 6 },
      "checkInHour": "12pm",
      "checkOutHour": "10am",
      "distanceFromCityCenterInKM": 22,
      "contactDetails": {
        "phone": "1-743-332-5139 x330",
        "email": "Fame_NewWilliamport75@hotmail.com"
      }
    },
    {
      "id": 15096,
      "venueId": 72,
      "location": { "postalCode": "76-629", "name": "West Vernfield" },
      "pricePerNightInEUR": "417.00",
      "rating": 4.6,
      "numberOfReviews": 7979,
      "capacity": 11,
      "name": "I Feel Love",
      "albumId": 29,
      "description": "Amita vicissitudo allatus corrupti comprehendo terra comis. Aggredior voluptatibus vulnero angelus stella confido caelestis.",
      "features": {
        "generalAmenities": [
          "pool",
          "parking",
          "jacuzzi",
          "fitness center",
          "speakers",
          "24h reception",
          "pet friendly",
          "WiFi",
          "karaoke",
          "playground",
          "fireplace",
          "garden",
          "bar",
          "restaurant",
          "library",
          "indoor music",
          "outdoor music"
        ],
        "roomAmenities": ["bathroom facilities", "safe"],
        "neighbourhoods": [
          "national park",
          "museum",
          "cinema",
          "sea",
          "lake",
          "mountains",
          "mall",
          "zoo"
        ],
        "handicapAccesibility": [
          "wheelchair friendly",
          "deaf friendly",
          "blind friendly",
          "short-grown friendly"
        ]
      },
      "sleepingDetails": { "maxCapacity": 11, "amountOfBeds": 7 },
      "checkInHour": "12pm",
      "checkOutHour": "10am",
      "distanceFromCityCenterInKM": 3,
      "contactDetails": {
        "phone": "1-603-608-1215 x8458",
        "email": "IFeelLove23@gmail.com"
      }
    },
    {
      "id": 10230,
      "venueId": 73,
      "location": { "postalCode": "92-780", "name": "Noelstead" },
      "pricePerNightInEUR": "892.00",
      "rating": 4.9,
      "numberOfReviews": 672,
      "capacity": 6,
      "name": "Waterfalls",
      "albumId": 28,
      "description": "Cometes aegre nisi blandior absum. Quos decet ante cursim usitas dolores despecto. Villa titulus bis officia maiores. Repellendus sollers textor ceno comitatus custodia. Tolero turpis claro tantillus abbas commodo.",
      "features": {
        "generalAmenities": [
          "24h reception",
          "pet friendly",
          "playground",
          "fitness center",
          "fireplace",
          "outdoor music",
          "library",
          "restaurant",
          "karaoke",
          "indoor music",
          "pool",
          "garden",
          "WiFi"
        ],
        "roomAmenities": [
          "safe",
          "kitchen facilities",
          "bathroom facilities",
          "hypoallergic bedding"
        ],
        "neighbourhoods": [
          "museum",
          "sea",
          "cinema",
          "mountains",
          "church",
          "amusement park",
          "national park",
          "lake",
          "forest",
          "historical monument",
          "old town",
          "zoo",
          "theatre"
        ],
        "handicapAccesibility": ["deaf friendly", "short-grown friendly"]
      },
      "sleepingDetails": { "maxCapacity": 6, "amountOfBeds": 5 },
      "checkInHour": "12pm",
      "checkOutHour": "10am",
      "distanceFromCityCenterInKM": 2,
      "contactDetails": {
        "phone": "204-666-9127",
        "email": "Waterfalls_Noelstead@yahoo.com"
      }
    },
    {
      "id": 991,
      "venueId": 74,
      "location": { "postalCode": "40-384", "name": "Fort Doyleberg" },
      "pricePerNightInEUR": "285.00",
      "rating": 3.7,
      "numberOfReviews": 5727,
      "capacity": 8,
      "name": "Fire & Rain",
      "albumId": 27,
      "description": "Terror asperiores comparo creber abscido confido solio tam crastinus amiculum. Vilicus incidunt cognatus cura nostrum cunctatio unde verbum venio.",
      "features": {
        "generalAmenities": [
          "fireplace",
          "speakers",
          "pet friendly",
          "garden",
          "fitness center",
          "WiFi",
          "24h reception",
          "karaoke",
          "parking",
          "pool"
        ],
        "roomAmenities": ["kitchen facilities", "safe"],
        "neighbourhoods": [
          "historical monument",
          "church",
          "forest",
          "amusement park",
          "old town",
          "sea",
          "cinema",
          "museum",
          "lake",
          "theatre",
          "park",
          "restaurant",
          "mall"
        ],
        "handicapAccesibility": [
          "deaf friendly",
          "wheelchair friendly",
          "short-grown friendly",
          "blind friendly"
        ]
      },
      "sleepingDetails": { "maxCapacity": 8, "amountOfBeds": 8 },
      "checkInHour": "12pm",
      "checkOutHour": "10am",
      "distanceFromCityCenterInKM": 20,
      "contactDetails": {
        "phone": "(455) 902-5328",
        "email": "FireRain.FortDoyleberg36@yahoo.com"
      }
    },
    {
      "id": 2767,
      "venueId": 75,
      "location": { "postalCode": "22-342", "name": "O'Keefeland" },
      "pricePerNightInEUR": "401.00",
      "rating": 1.2,
      "numberOfReviews": 3435,
      "capacity": 6,
      "name": "I'm a Believer",
      "albumId": 26,
      "description": "Tolero occaecati adduco vulticulus comprehendo laborum aspicio calculus voluptate vox. Temptatio valetudo virga dolor dedico carmen. Tabula id dens antepono vomica corona tonsor.",
      "features": {
        "generalAmenities": [
          "WiFi",
          "garden",
          "fitness center",
          "pet friendly",
          "bar",
          "jacuzzi",
          "pool"
        ],
        "roomAmenities": ["kitchen facilities"],
        "neighbourhoods": [
          "cinema",
          "church",
          "museum",
          "sea",
          "mall",
          "national park",
          "lake",
          "mountains",
          "zoo",
          "old town"
        ],
        "handicapAccesibility": ["wheelchair friendly", "short-grown friendly"]
      },
      "sleepingDetails": { "maxCapacity": 6, "amountOfBeds": 4 },
      "checkInHour": "12pm",
      "checkOutHour": "10am",
      "distanceFromCityCenterInKM": 10,
      "contactDetails": {
        "phone": "813.481.0234 x9824",
        "email": "ImaBeliever14@yahoo.com"
      }
    },
    {
      "id": 10686,
      "venueId": 76,
      "location": { "postalCode": "51-393", "name": "Conroe" },
      "pricePerNightInEUR": "945.00",
      "rating": 3,
      "numberOfReviews": 3630,
      "capacity": 11,
      "name": "Green River",
      "albumId": 25,
      "description": "Tenuis balbus adiuvo amor. Assentator incidunt dapifer deprimo suadeo. Aliquid amaritudo subseco. Cognomen caelestis certe acsi. Vere demonstro amo viriliter vapulus nostrum. Textor suggero casus traho molestias.",
      "features": {
        "generalAmenities": ["bar", "fireplace", "outdoor music"],
        "roomAmenities": ["hypoallergic bedding", "safe"],
        "neighbourhoods": [
          "forest",
          "zoo",
          "park",
          "sea",
          "theatre",
          "lake",
          "mountains",
          "national park",
          "cinema"
        ],
        "handicapAccesibility": []
      },
      "sleepingDetails": { "maxCapacity": 11, "amountOfBeds": 6 },
      "checkInHour": "12pm",
      "checkOutHour": "10am",
      "distanceFromCityCenterInKM": 7,
      "contactDetails": {
        "phone": "388-390-1646 x06180",
        "email": "GreenRiver%Conroe@yahoo.com"
      }
    },
    {
      "id": 8863,
      "venueId": 77,
      "location": { "postalCode": "23-633", "name": "Aufderharfurt" },
      "pricePerNightInEUR": "334.00",
      "rating": 3.6,
      "numberOfReviews": 1552,
      "capacity": 2,
      "name": "The Morning After",
      "albumId": 24,
      "description": "Provident victoria deprecator. Attollo causa explicabo ascisco ea voluptatem deripio. Sublime uterque velum trans capio aeternus voluntarius sponte cimentarius.",
      "features": {
        "generalAmenities": ["WiFi", "parking", "playground", "fitness center"],
        "roomAmenities": [
          "TV",
          "bathroom facilities",
          "hypoallergic bedding",
          "kitchen facilities"
        ],
        "neighbourhoods": [
          "mall",
          "theatre",
          "historical monument",
          "cinema",
          "forest",
          "sea",
          "mountains",
          "national park",
          "museum"
        ],
        "handicapAccesibility": [
          "short-grown friendly",
          "blind friendly",
          "deaf friendly"
        ]
      },
      "sleepingDetails": { "maxCapacity": 2, "amountOfBeds": 1 },
      "checkInHour": "12pm",
      "checkOutHour": "10am",
      "distanceFromCityCenterInKM": 14,
      "contactDetails": {
        "phone": "712.375.3939 x953",
        "email": "TheMorningAfter2@yahoo.com"
      }
    },
    {
      "id": 17734,
      "venueId": 78,
      "location": { "postalCode": "69-676", "name": "East Monserrate" },
      "pricePerNightInEUR": "284.00",
      "rating": 3,
      "numberOfReviews": 1783,
      "capacity": 9,
      "name": "The Joker",
      "albumId": 23,
      "description": "Confero tremo carbo voluptatibus provident vitiosus. Thermae contra deprimo summisse cunae video territo charisma corona decretum. Civis trepide adhuc taedium nihil curatio terreo corrupti.",
      "features": {
        "generalAmenities": [
          "fitness center",
          "pet friendly",
          "speakers",
          "24h reception",
          "library",
          "jacuzzi",
          "pool"
        ],
        "roomAmenities": [
          "safe",
          "hypoallergic bedding",
          "bathroom facilities",
          "TV",
          "kitchen facilities"
        ],
        "neighbourhoods": [
          "park",
          "amusement park",
          "theatre",
          "mall",
          "old town",
          "historical monument",
          "national park",
          "museum"
        ],
        "handicapAccesibility": [
          "deaf friendly",
          "short-grown friendly",
          "wheelchair friendly"
        ]
      },
      "sleepingDetails": { "maxCapacity": 9, "amountOfBeds": 7 },
      "checkInHour": "12pm",
      "checkOutHour": "10am",
      "distanceFromCityCenterInKM": 15,
      "contactDetails": {
        "phone": "590.488.0681 x985",
        "email": "TheJoker.EastMonserrate@hotmail.com"
      }
    },
    {
      "id": 15981,
      "venueId": 79,
      "location": { "postalCode": "22-328", "name": "Oshkosh" },
      "pricePerNightInEUR": "913.00",
      "rating": 2.2,
      "numberOfReviews": 7019,
      "capacity": 3,
      "name": "I Heard it Through the Grapevine",
      "albumId": 22,
      "description": "Verumtamen desparatus sto. Complectus aduro verbum vacuus comitatus spiritus cubicularis creta. Urbs tredecim eum talio aegrotatio terga subseco cometes.",
      "features": {
        "generalAmenities": [
          "jacuzzi",
          "karaoke",
          "24h reception",
          "library",
          "restaurant",
          "bar",
          "pool",
          "WiFi",
          "parking",
          "playground"
        ],
        "roomAmenities": [
          "safe",
          "bathroom facilities",
          "hypoallergic bedding"
        ],
        "neighbourhoods": [
          "mountains",
          "restaurant",
          "forest",
          "amusement park",
          "church",
          "national park",
          "park",
          "cinema",
          "theatre",
          "sea",
          "lake"
        ],
        "handicapAccesibility": ["short-grown friendly", "wheelchair friendly"]
      },
      "sleepingDetails": { "maxCapacity": 3, "amountOfBeds": 2 },
      "checkInHour": "12pm",
      "checkOutHour": "10am",
      "distanceFromCityCenterInKM": 20,
      "contactDetails": {
        "phone": "1-255-496-5866 x80754",
        "email": "IHearditThroughtheGrapevine86@hotmail.com"
      }
    },
    {
      "id": 4025,
      "venueId": 80,
      "location": { "postalCode": "93-317", "name": "Salmahaven" },
      "pricePerNightInEUR": "623.00",
      "rating": 4,
      "numberOfReviews": 7292,
      "capacity": 6,
      "name": "Manana (Is Soon Enough For Me)",
      "albumId": 21,
      "description": "Complectus tamisium demergo angelus vilis apparatus. Delicate bos antea. Tepidus dedecor uter canonicus confido asporto comburo totidem.",
      "features": {
        "generalAmenities": [
          "playground",
          "parking",
          "outdoor music",
          "jacuzzi",
          "WiFi",
          "pet friendly"
        ],
        "roomAmenities": ["kitchen facilities", "safe", "bathroom facilities"],
        "neighbourhoods": [
          "museum",
          "cinema",
          "amusement park",
          "theatre",
          "lake",
          "mountains",
          "forest",
          "old town"
        ],
        "handicapAccesibility": [
          "short-grown friendly",
          "deaf friendly",
          "wheelchair friendly",
          "blind friendly"
        ]
      },
      "sleepingDetails": { "maxCapacity": 6, "amountOfBeds": 4 },
      "checkInHour": "12pm",
      "checkOutHour": "10am",
      "distanceFromCityCenterInKM": 6,
      "contactDetails": {
        "phone": "568-396-4860",
        "email": "MananaIsSoonEnoughForMe_Salmahaven@gmail.com"
      }
    },
    {
      "id": 17017,
      "venueId": 81,
      "location": { "postalCode": "67-760", "name": "St. Charles" },
      "pricePerNightInEUR": "994.00",
      "rating": 1.4,
      "numberOfReviews": 2854,
      "capacity": 1,
      "name": "My Love",
      "albumId": 20,
      "description": "Tenuis amplitudo clamo vorax statua apud tactus turba. Ultra suffoco temeritas angulus pariatur capillus asporto subnecto architecto. Ante calcar sto sint accommodo repellendus. Triduana coepi adeptio pax arma amiculum.",
      "features": {
        "generalAmenities": [
          "library",
          "pet friendly",
          "fireplace",
          "bar",
          "garden",
          "parking",
          "outdoor music",
          "speakers",
          "indoor music",
          "restaurant",
          "WiFi",
          "fitness center"
        ],
        "roomAmenities": ["safe", "TV"],
        "neighbourhoods": [
          "old town",
          "lake",
          "sea",
          "national park",
          "amusement park",
          "historical monument",
          "museum",
          "forest",
          "theatre",
          "mountains",
          "park",
          "restaurant",
          "mall"
        ],
        "handicapAccesibility": [
          "short-grown friendly",
          "deaf friendly",
          "wheelchair friendly"
        ]
      },
      "sleepingDetails": { "maxCapacity": 1, "amountOfBeds": 1 },
      "checkInHour": "12pm",
      "checkOutHour": "10am",
      "distanceFromCityCenterInKM": 23,
      "contactDetails": {
        "phone": "1-497-814-5434 x5972",
        "email": "MyLove.St.Charles92@gmail.com"
      }
    },
    {
      "id": 17716,
      "venueId": 82,
      "location": { "postalCode": "44-192", "name": "North Kayley" },
      "pricePerNightInEUR": "630.00",
      "rating": 3.3,
      "numberOfReviews": 4171,
      "capacity": 12,
      "name": "Tutti Frutti",
      "albumId": 19,
      "description": "Facere ara conventus. Solus spiritus curto. Mollitia decerno creator impedit. Aestivus ara amissio tantillus adipisci tantillus comis vivo. Ad aperiam audacia.",
      "features": {
        "generalAmenities": ["library", "jacuzzi", "karaoke", "speakers"],
        "roomAmenities": [
          "bathroom facilities",
          "safe",
          "kitchen facilities",
          "hypoallergic bedding",
          "TV"
        ],
        "neighbourhoods": ["amusement park", "national park", "cinema"],
        "handicapAccesibility": ["wheelchair friendly", "blind friendly"]
      },
      "sleepingDetails": { "maxCapacity": 12, "amountOfBeds": 8 },
      "checkInHour": "12pm",
      "checkOutHour": "10am",
      "distanceFromCityCenterInKM": 19,
      "contactDetails": {
        "phone": "695-593-6043 x3281",
        "email": "TuttiFrutti_NorthKayley39@gmail.com"
      }
    },
    {
      "id": 10845,
      "venueId": 83,
      "location": { "postalCode": "17-846", "name": "Cronashire" },
      "pricePerNightInEUR": "324.00",
      "rating": 2.8,
      "numberOfReviews": 2101,
      "capacity": 9,
      "name": "Change the World",
      "albumId": 18,
      "description": "Argentum tenuis pax ullam sollers argentum vobis. Ea corpus assumenda vehemens conatus canis comptus sulum vorax. Harum fugit surgo amitto voveo ustulo. Toties absconditus vacuus suffragium bis congregatio tot. Summopere conturbo provident terminatio.",
      "features": {
        "generalAmenities": [
          "speakers",
          "pool",
          "playground",
          "indoor music",
          "bar",
          "library",
          "parking",
          "restaurant",
          "24h reception",
          "WiFi",
          "pet friendly",
          "garden",
          "fitness center"
        ],
        "roomAmenities": [
          "safe",
          "kitchen facilities",
          "bathroom facilities",
          "hypoallergic bedding"
        ],
        "neighbourhoods": [
          "theatre",
          "church",
          "lake",
          "park",
          "sea",
          "mall",
          "mountains",
          "historical monument",
          "national park",
          "amusement park",
          "old town",
          "forest",
          "museum",
          "restaurant",
          "zoo"
        ],
        "handicapAccesibility": [
          "deaf friendly",
          "short-grown friendly",
          "wheelchair friendly"
        ]
      },
      "sleepingDetails": { "maxCapacity": 9, "amountOfBeds": 7 },
      "checkInHour": "12pm",
      "checkOutHour": "10am",
      "distanceFromCityCenterInKM": 20,
      "contactDetails": {
        "phone": "1-625-859-9826 x19656",
        "email": "ChangetheWorld.Cronashire@hotmail.com"
      }
    },
    {
      "id": 2632,
      "venueId": 84,
      "location": { "postalCode": "94-170", "name": "South Marilie" },
      "pricePerNightInEUR": "970.00",
      "rating": 5,
      "numberOfReviews": 5202,
      "capacity": 12,
      "name": "Like a Rolling Stone",
      "albumId": 17,
      "description": "Centum concido adficio astrum spectaculum coerceo sono conspergo turbo. Synagoga corpus acer crux credo commodi vir. Concido absorbeo molestias occaecati pariatur somniculosus asperiores atrocitas delicate crinis. Apto suppono suppellex cui in abutor cohors. Arbor aperio spargo temperantia consuasor atavus contego.",
      "features": {
        "generalAmenities": [
          "karaoke",
          "pool",
          "parking",
          "playground",
          "WiFi",
          "indoor music",
          "library",
          "pet friendly",
          "outdoor music",
          "bar",
          "speakers",
          "restaurant",
          "24h reception",
          "garden",
          "fitness center",
          "jacuzzi"
        ],
        "roomAmenities": ["TV", "hypoallergic bedding", "bathroom facilities"],
        "neighbourhoods": [
          "old town",
          "mall",
          "park",
          "restaurant",
          "amusement park",
          "church",
          "forest"
        ],
        "handicapAccesibility": []
      },
      "sleepingDetails": { "maxCapacity": 12, "amountOfBeds": 9 },
      "checkInHour": "12pm",
      "checkOutHour": "10am",
      "distanceFromCityCenterInKM": 8,
      "contactDetails": {
        "phone": "1-975-923-9053",
        "email": "LikeaRollingStone*SouthMarilie@yahoo.com"
      }
    },
    {
      "id": 3896,
      "venueId": 85,
      "location": { "postalCode": "60-852", "name": "Carson" },
      "pricePerNightInEUR": "927.00",
      "rating": 5,
      "numberOfReviews": 748,
      "capacity": 3,
      "name": "(Let Me Be Your) Teddy Bear",
      "albumId": 16,
      "description": "Adamo despecto vesco attonbitus. Alo calamitas thymum solus cervus.",
      "features": {
        "generalAmenities": [
          "fireplace",
          "24h reception",
          "library",
          "fitness center",
          "playground",
          "parking",
          "jacuzzi",
          "pool",
          "speakers",
          "WiFi",
          "garden",
          "bar",
          "restaurant",
          "outdoor music",
          "pet friendly",
          "karaoke"
        ],
        "roomAmenities": [
          "safe",
          "hypoallergic bedding",
          "bathroom facilities",
          "TV",
          "kitchen facilities"
        ],
        "neighbourhoods": [
          "restaurant",
          "theatre",
          "sea",
          "church",
          "forest",
          "national park",
          "zoo",
          "cinema",
          "museum",
          "mall",
          "old town",
          "amusement park",
          "lake",
          "park"
        ],
        "handicapAccesibility": []
      },
      "sleepingDetails": { "maxCapacity": 3, "amountOfBeds": 2 },
      "checkInHour": "12pm",
      "checkOutHour": "10am",
      "distanceFromCityCenterInKM": 16,
      "contactDetails": {
        "phone": "(997) 452-2336",
        "email": "LetMeBeYourTeddyBear22@yahoo.com"
      }
    },
    {
      "id": 718,
      "venueId": 86,
      "location": { "postalCode": "20-897", "name": "Adelefield" },
      "pricePerNightInEUR": "280.00",
      "rating": 2.5,
      "numberOfReviews": 2942,
      "capacity": 12,
      "name": "The Long & Winding Road",
      "albumId": 15,
      "description": "Delinquo succedo agnitio armarium. Admoneo solutio perferendis thema tonsor aliquam vaco cauda. Aestivus delicate cohaero bardus vomica nostrum. Nostrum carcer cicuta temporibus aliquid aperte aspernatur. Cuppedia terra accusantium voro cunabula molestiae inflammatio. Cetera illo cui supra cunae.",
      "features": {
        "generalAmenities": [
          "jacuzzi",
          "garden",
          "24h reception",
          "speakers",
          "outdoor music",
          "karaoke",
          "library",
          "restaurant",
          "fireplace",
          "fitness center",
          "pet friendly"
        ],
        "roomAmenities": ["bathroom facilities"],
        "neighbourhoods": [
          "mall",
          "national park",
          "amusement park",
          "park",
          "historical monument",
          "mountains",
          "zoo",
          "sea",
          "forest"
        ],
        "handicapAccesibility": [
          "blind friendly",
          "wheelchair friendly",
          "short-grown friendly"
        ]
      },
      "sleepingDetails": { "maxCapacity": 12, "amountOfBeds": 12 },
      "checkInHour": "12pm",
      "checkOutHour": "10am",
      "distanceFromCityCenterInKM": 21,
      "contactDetails": {
        "phone": "840.885.4631 x89027",
        "email": "TheLongWindingRoad'Adelefield@hotmail.com"
      }
    },
    {
      "id": 15498,
      "venueId": 87,
      "location": { "postalCode": "76-841", "name": "Pleasanton" },
      "pricePerNightInEUR": "925.00",
      "rating": 4.5,
      "numberOfReviews": 5062,
      "capacity": 8,
      "name": "The Sign",
      "albumId": 14,
      "description": "Articulus uter adimpleo vilitas. Acidus ager bardus ab territo temporibus adduco charisma. Utpote vetus vitiosus paens. Nostrum rerum canonicus.",
      "features": {
        "generalAmenities": [
          "bar",
          "fireplace",
          "WiFi",
          "fitness center",
          "pool",
          "library",
          "pet friendly",
          "outdoor music",
          "parking"
        ],
        "roomAmenities": [
          "kitchen facilities",
          "safe",
          "bathroom facilities",
          "hypoallergic bedding",
          "TV"
        ],
        "neighbourhoods": [
          "historical monument",
          "amusement park",
          "lake",
          "theatre",
          "mountains",
          "cinema",
          "restaurant",
          "church",
          "mall",
          "sea",
          "national park"
        ],
        "handicapAccesibility": ["deaf friendly"]
      },
      "sleepingDetails": { "maxCapacity": 8, "amountOfBeds": 8 },
      "checkInHour": "12pm",
      "checkOutHour": "10am",
      "distanceFromCityCenterInKM": 18,
      "contactDetails": {
        "phone": "1-760-771-3385 x4119",
        "email": "TheSign91@gmail.com"
      }
    },
    {
      "id": 6578,
      "venueId": 88,
      "location": { "postalCode": "33-867", "name": "Kaceyburgh" },
      "pricePerNightInEUR": "464.00",
      "rating": 1.6,
      "numberOfReviews": 2765,
      "capacity": 1,
      "name": "Wipe Out",
      "albumId": 13,
      "description": "Bellicus vesco delinquo surgo stella. Viridis ago vito eaque correptius victus civis tenetur colligo delinquo.",
      "features": {
        "generalAmenities": [
          "bar",
          "pool",
          "library",
          "playground",
          "fitness center",
          "outdoor music",
          "24h reception",
          "karaoke",
          "garden",
          "jacuzzi",
          "speakers",
          "restaurant",
          "indoor music"
        ],
        "roomAmenities": ["safe", "hypoallergic bedding", "kitchen facilities"],
        "neighbourhoods": ["park", "sea", "church", "zoo"],
        "handicapAccesibility": [
          "short-grown friendly",
          "deaf friendly",
          "blind friendly"
        ]
      },
      "sleepingDetails": { "maxCapacity": 1, "amountOfBeds": 1 },
      "checkInHour": "12pm",
      "checkOutHour": "10am",
      "distanceFromCityCenterInKM": 14,
      "contactDetails": {
        "phone": "636-395-0609 x285",
        "email": "WipeOut82@yahoo.com"
      }
    },
    {
      "id": 7298,
      "venueId": 89,
      "location": { "postalCode": "09-738", "name": "Port Stanfordshire" },
      "pricePerNightInEUR": "432.00",
      "rating": 3.5,
      "numberOfReviews": 6042,
      "capacity": 10,
      "name": "Big Girls Don't Cry",
      "albumId": 12,
      "description": "Vivo totidem denique suus derelinquo bellum eaque acsi amita. Ratione praesentium aureus atrox deludo carpo verbera calco tripudio. Illum abutor virga.",
      "features": {
        "generalAmenities": [
          "24h reception",
          "fitness center",
          "pet friendly",
          "playground",
          "garden",
          "fireplace",
          "library",
          "karaoke",
          "parking",
          "pool",
          "restaurant",
          "jacuzzi"
        ],
        "roomAmenities": [
          "bathroom facilities",
          "hypoallergic bedding",
          "kitchen facilities",
          "safe",
          "TV"
        ],
        "neighbourhoods": [
          "historical monument",
          "old town",
          "theatre",
          "restaurant",
          "amusement park",
          "church",
          "zoo",
          "lake"
        ],
        "handicapAccesibility": [
          "blind friendly",
          "deaf friendly",
          "short-grown friendly",
          "wheelchair friendly"
        ]
      },
      "sleepingDetails": { "maxCapacity": 10, "amountOfBeds": 7 },
      "checkInHour": "12pm",
      "checkOutHour": "10am",
      "distanceFromCityCenterInKM": 18,
      "contactDetails": {
        "phone": "265.932.7683 x5685",
        "email": "BigGirlsDontCry60@gmail.com"
      }
    },
    {
      "id": 17957,
      "venueId": 90,
      "location": { "postalCode": "98-358", "name": "Pablofield" },
      "pricePerNightInEUR": "54.00",
      "rating": 3.1,
      "numberOfReviews": 5541,
      "capacity": 11,
      "name": "Crazy in Love",
      "albumId": 11,
      "description": "Adulatio infit demens inventore virgo caput. Adflicto tactus suffragium cimentarius molestiae strenuus apud confero super cognomen. Curvo degusto maxime cubitum cogito synagoga eveniet. Cognatus aegrotatio decretum. Absque crapula congregatio debeo molestiae stipes chirographum. Depulso stultus esse vester defendo est utique vilis defaeco. Curriculum aer totidem tempore terebro supra cubo.",
      "features": {
        "generalAmenities": [
          "bar",
          "restaurant",
          "fitness center",
          "pet friendly",
          "karaoke"
        ],
        "roomAmenities": [
          "bathroom facilities",
          "TV",
          "hypoallergic bedding",
          "kitchen facilities",
          "safe"
        ],
        "neighbourhoods": [
          "cinema",
          "mountains",
          "restaurant",
          "church",
          "forest",
          "amusement park",
          "sea",
          "zoo",
          "museum"
        ],
        "handicapAccesibility": ["deaf friendly"]
      },
      "sleepingDetails": { "maxCapacity": 11, "amountOfBeds": 6 },
      "checkInHour": "12pm",
      "checkOutHour": "10am",
      "distanceFromCityCenterInKM": 8,
      "contactDetails": {
        "phone": "(965) 538-8083 x5418",
        "email": "CrazyinLove_Pablofield41@hotmail.com"
      }
    },
    {
      "id": 8085,
      "venueId": 91,
      "location": { "postalCode": "91-929", "name": "Kshlerinville" },
      "pricePerNightInEUR": "577.00",
      "rating": 5,
      "numberOfReviews": 2912,
      "capacity": 3,
      "name": "Fame",
      "albumId": 10,
      "description": "Thymbra dens patria atque maiores temperantia degusto spoliatio beatae tamdiu. Vociferor terreo cogo ambitus conculco vulgivagus amissio substantia umbra. Torqueo abscido ventito adflicto.",
      "features": {
        "generalAmenities": [
          "bar",
          "karaoke",
          "speakers",
          "outdoor music",
          "jacuzzi",
          "parking",
          "WiFi"
        ],
        "roomAmenities": ["safe", "bathroom facilities"],
        "neighbourhoods": [
          "theatre",
          "restaurant",
          "amusement park",
          "zoo",
          "church",
          "lake",
          "historical monument",
          "cinema",
          "mall"
        ],
        "handicapAccesibility": ["short-grown friendly"]
      },
      "sleepingDetails": { "maxCapacity": 3, "amountOfBeds": 3 },
      "checkInHour": "12pm",
      "checkOutHour": "10am",
      "distanceFromCityCenterInKM": 1,
      "contactDetails": {
        "phone": "1-750-373-0573 x66913",
        "email": "Fame_Kshlerinville@hotmail.com"
      }
    },
    {
      "id": 11007,
      "venueId": 92,
      "location": { "postalCode": "09-363", "name": "Danielatown" },
      "pricePerNightInEUR": "839.00",
      "rating": 1.1,
      "numberOfReviews": 9494,
      "capacity": 2,
      "name": "50 Ways to Leave Your Lover",
      "albumId": 9,
      "description": "Validus adflicto statua aestivus absorbeo cura aliqua adulescens dolorem. Aperte voluptatem thymbra curis similique administratio ut celebrer tabernus tendo. Tergum tempore tot inventore ascisco ipsam alius causa tepidus casso. Amitto crinis temptatio comparo atqui totus pecus ater crapula. Sum veniam suus vorago subnecto antea.",
      "features": {
        "generalAmenities": [
          "pet friendly",
          "fitness center",
          "playground",
          "restaurant",
          "WiFi",
          "library",
          "fireplace",
          "karaoke",
          "pool",
          "garden",
          "indoor music",
          "parking",
          "bar",
          "jacuzzi",
          "outdoor music",
          "speakers",
          "24h reception"
        ],
        "roomAmenities": [
          "hypoallergic bedding",
          "kitchen facilities",
          "bathroom facilities",
          "TV"
        ],
        "neighbourhoods": [
          "lake",
          "museum",
          "cinema",
          "church",
          "forest",
          "park",
          "amusement park",
          "zoo",
          "theatre"
        ],
        "handicapAccesibility": [
          "deaf friendly",
          "short-grown friendly",
          "blind friendly",
          "wheelchair friendly"
        ]
      },
      "sleepingDetails": { "maxCapacity": 2, "amountOfBeds": 1 },
      "checkInHour": "12pm",
      "checkOutHour": "10am",
      "distanceFromCityCenterInKM": 29,
      "contactDetails": {
        "phone": "(700) 389-3814 x84476",
        "email": "50WaystoLeaveYourLover_Danielatown@gmail.com"
      }
    },
    {
      "id": 3808,
      "venueId": 93,
      "location": { "postalCode": "47-365", "name": "Cordellfield" },
      "pricePerNightInEUR": "879.00",
      "rating": 2.5,
      "numberOfReviews": 5604,
      "capacity": 4,
      "name": "The Last Dance",
      "albumId": 8,
      "description": "Templum aufero adduco adversus villa anser termes. Magni vesco calculus sed textus tenax cilicium. Vehemens terreo ago. Cura candidus correptius.",
      "features": {
        "generalAmenities": ["parking", "pool", "fitness center", "speakers"],
        "roomAmenities": ["bathroom facilities", "safe"],
        "neighbourhoods": [
          "zoo",
          "mountains",
          "theatre",
          "amusement park",
          "church",
          "cinema",
          "sea",
          "national park",
          "lake",
          "restaurant"
        ],
        "handicapAccesibility": ["blind friendly", "short-grown friendly"]
      },
      "sleepingDetails": { "maxCapacity": 4, "amountOfBeds": 2 },
      "checkInHour": "12pm",
      "checkOutHour": "10am",
      "distanceFromCityCenterInKM": 29,
      "contactDetails": {
        "phone": "600.862.6741 x6375",
        "email": "TheLastDance_Cordellfield@yahoo.com"
      }
    },
    {
      "id": 6220,
      "venueId": 94,
      "location": { "postalCode": "60-470", "name": "Lake Thomas" },
      "pricePerNightInEUR": "95.00",
      "rating": 1,
      "numberOfReviews": 5961,
      "capacity": 1,
      "name": "(I Can't Get No) Satisfaction",
      "albumId": 7,
      "description": "Patrocinor umquam coadunatio carus. Teres minima coniecto cohaero dicta. Sursum taceo aliquid aegre communis calculus patria thesaurus adsum. Depromo viriliter tyrannus ambitus ars. Ventito barba absque videlicet turbo ara sufficio auctus.",
      "features": {
        "generalAmenities": ["parking", "WiFi", "restaurant"],
        "roomAmenities": [
          "kitchen facilities",
          "safe",
          "TV",
          "hypoallergic bedding"
        ],
        "neighbourhoods": ["sea", "church", "park"],
        "handicapAccesibility": [
          "deaf friendly",
          "short-grown friendly",
          "blind friendly"
        ]
      },
      "sleepingDetails": { "maxCapacity": 1, "amountOfBeds": 1 },
      "checkInHour": "12pm",
      "checkOutHour": "10am",
      "distanceFromCityCenterInKM": 8,
      "contactDetails": {
        "phone": "(377) 436-6928 x3916",
        "email": "ICantGetNoSatisfaction39@yahoo.com"
      }
    },
    {
      "id": 6312,
      "venueId": 95,
      "location": { "postalCode": "75-825", "name": "Rohancester" },
      "pricePerNightInEUR": "143.00",
      "rating": 2,
      "numberOfReviews": 7654,
      "capacity": 3,
      "name": "Stranger On the Shore",
      "albumId": 6,
      "description": "Contigo sonitus derelinquo deputo tergo vallum tersus tui atque comedo. Curo cerno alias ullam veritatis cuius.",
      "features": {
        "generalAmenities": [
          "garden",
          "indoor music",
          "outdoor music",
          "speakers",
          "jacuzzi",
          "fitness center",
          "fireplace"
        ],
        "roomAmenities": ["safe", "hypoallergic bedding", "kitchen facilities"],
        "neighbourhoods": [
          "amusement park",
          "park",
          "zoo",
          "national park",
          "restaurant",
          "sea",
          "old town",
          "historical monument",
          "forest",
          "theatre"
        ],
        "handicapAccesibility": [
          "short-grown friendly",
          "wheelchair friendly",
          "blind friendly",
          "deaf friendly"
        ]
      },
      "sleepingDetails": { "maxCapacity": 3, "amountOfBeds": 2 },
      "checkInHour": "12pm",
      "checkOutHour": "10am",
      "distanceFromCityCenterInKM": 20,
      "contactDetails": {
        "phone": "535.923.0872 x60073",
        "email": "StrangerOntheShore_Rohancester@yahoo.com"
      }
    },
    {
      "id": 195,
      "venueId": 96,
      "location": { "postalCode": "32-932", "name": "Marionshire" },
      "pricePerNightInEUR": "786.00",
      "rating": 3.8,
      "numberOfReviews": 4622,
      "capacity": 12,
      "name": "Nature Boy",
      "albumId": 5,
      "description": "Aduro degero color cras saepe ascit ago. Alias odio degenero terebro sono bonus.",
      "features": {
        "generalAmenities": [
          "playground",
          "parking",
          "bar",
          "fireplace",
          "fitness center",
          "restaurant",
          "24h reception",
          "library",
          "karaoke"
        ],
        "roomAmenities": [
          "bathroom facilities",
          "kitchen facilities",
          "hypoallergic bedding",
          "TV"
        ],
        "neighbourhoods": [
          "park",
          "national park",
          "lake",
          "zoo",
          "museum",
          "mountains",
          "historical monument",
          "church"
        ],
        "handicapAccesibility": [
          "short-grown friendly",
          "wheelchair friendly",
          "blind friendly",
          "deaf friendly"
        ]
      },
      "sleepingDetails": { "maxCapacity": 12, "amountOfBeds": 10 },
      "checkInHour": "12pm",
      "checkOutHour": "10am",
      "distanceFromCityCenterInKM": 10,
      "contactDetails": {
        "phone": "(650) 840-8757",
        "email": "NatureBoy^Marionshire11@hotmail.com"
      }
    },
    {
      "id": 18583,
      "venueId": 97,
      "location": { "postalCode": "48-899", "name": "White Plains" },
      "pricePerNightInEUR": "355.00",
      "rating": 1.1,
      "numberOfReviews": 9104,
      "capacity": 1,
      "name": "Two Hearts",
      "albumId": 4,
      "description": "Subvenio officia suffragium velit dolorem thesis spiculum. Alius vomito bene. Ullam teres demum tres cupiditas arbustum rem bardus coerceo. Decretum denuo versus benevolentia sit turpis virgo. Cibo damno tempore trucido. Tenax sub decens umbra admoneo admoveo.",
      "features": {
        "generalAmenities": [
          "playground",
          "pool",
          "WiFi",
          "fitness center",
          "fireplace",
          "pet friendly",
          "karaoke",
          "speakers"
        ],
        "roomAmenities": ["kitchen facilities"],
        "neighbourhoods": ["lake", "old town", "amusement park", "restaurant"],
        "handicapAccesibility": [
          "deaf friendly",
          "blind friendly",
          "wheelchair friendly"
        ]
      },
      "sleepingDetails": { "maxCapacity": 1, "amountOfBeds": 1 },
      "checkInHour": "12pm",
      "checkOutHour": "10am",
      "distanceFromCityCenterInKM": 18,
      "contactDetails": {
        "phone": "1-736-658-3165",
        "email": "TwoHearts{WhitePlains@hotmail.com"
      }
    },
    {
      "id": 16358,
      "venueId": 98,
      "location": { "postalCode": "84-224", "name": "Rolfsonburgh" },
      "pricePerNightInEUR": "789.00",
      "rating": 1.9,
      "numberOfReviews": 7900,
      "capacity": 4,
      "name": "Rum & Coca-Cola",
      "albumId": 3,
      "description": "Somniculosus suus defessus demergo paens. Patior cura vaco commodi confido quis. Crepusculum veritatis tristis ater sordeo amitto absum vitae alii cerno.",
      "features": {
        "generalAmenities": [
          "restaurant",
          "WiFi",
          "indoor music",
          "fireplace",
          "pool",
          "24h reception",
          "pet friendly",
          "bar",
          "karaoke",
          "playground",
          "fitness center",
          "garden",
          "jacuzzi"
        ],
        "roomAmenities": ["TV", "safe"],
        "neighbourhoods": ["zoo", "lake", "mountains"],
        "handicapAccesibility": [
          "deaf friendly",
          "wheelchair friendly",
          "short-grown friendly"
        ]
      },
      "sleepingDetails": { "maxCapacity": 4, "amountOfBeds": 2 },
      "checkInHour": "12pm",
      "checkOutHour": "10am",
      "distanceFromCityCenterInKM": 2,
      "contactDetails": {
        "phone": "444-883-1904 x2870",
        "email": "RumCoca-Cola&Rolfsonburgh21@gmail.com"
      }
    },
    {
      "id": 16983,
      "venueId": 99,
      "location": { "postalCode": "11-810", "name": "Elizabeth" },
      "pricePerNightInEUR": "617.00",
      "rating": 2.7,
      "numberOfReviews": 4188,
      "capacity": 1,
      "name": "Iris",
      "albumId": 2,
      "description": "Arma argumentum at dens. Temptatio adiuvo suppellex tonsor tempore volva adfero pel tabella. Cubicularis audacia sono quaerat voluptates canto corrupti super denique ventus. Cinis adhaero succurro atqui. Ducimus vis vinum reprehenderit aestus deprimo quaerat blanditiis. Ater peior odit accendo arcesso copiose abduco corroboro beatus sui. Demens degero nam pecco stillicidium.",
      "features": {
        "generalAmenities": [
          "karaoke",
          "24h reception",
          "playground",
          "speakers",
          "indoor music",
          "pool",
          "fitness center",
          "pet friendly",
          "bar",
          "parking",
          "library",
          "garden",
          "jacuzzi",
          "WiFi",
          "outdoor music",
          "fireplace",
          "restaurant"
        ],
        "roomAmenities": ["hypoallergic bedding", "TV", "bathroom facilities"],
        "neighbourhoods": [
          "national park",
          "lake",
          "church",
          "mountains",
          "theatre",
          "cinema"
        ],
        "handicapAccesibility": ["short-grown friendly"]
      },
      "sleepingDetails": { "maxCapacity": 1, "amountOfBeds": 1 },
      "checkInHour": "12pm",
      "checkOutHour": "10am",
      "distanceFromCityCenterInKM": 18,
      "contactDetails": {
        "phone": "(390) 721-6714 x11555",
        "email": "Iris.Elizabeth8@hotmail.com"
      }
    },
    {
      "venueId": 100,
      "location": { "postalCode": "74-143", "name": "League City" },
      "pricePerNightInEUR": "500.00",
      "rating": 1.1,
      "numberOfReviews": 8072,
      "capacity": 11,
      "name": "Locked Out Of Heaven",
      "albumId": 1,
      "description": "Abstergo thesis volo vindico. Aequus pectus molestiae cervus terreo aequitas deputo. Textus trado audeo acquiro aspernatur demitto advenio. Conatus tabgo truculenter creo. Cubitum canto quia atrox ullam tametsi conturbo. Acer voluptatem sublime caecus colligo convoco.",
      "features": {
        "generalAmenities": [
          "parking",
          "playground",
          "WiFi",
          "outdoor music",
          "indoor music",
          "fitness center",
          "restaurant",
          "library"
        ],
        "roomAmenities": ["safe", "kitchen facilities", "bathroom facilities"],
        "neighbourhoods": ["mountains", "cinema", "church", "mall"],
        "handicapAccesibility": [
          "short-grown friendly",
          "blind friendly",
          "deaf friendly"
        ]
      },
      "sleepingDetails": { "maxCapacity": 11, "amountOfBeds": 8 },
      "checkInHour": "12pm",
      "checkOutHour": "10am",
      "distanceFromCityCenterInKM": 29,
      "contactDetails": {
        "phone": "877.953.5978",
        "email": "LockedOutOfHeaven{LeagueCity@yahoo.com"
      }
    }
  ]
}
